[
  {
    "postal_code": 9401,
    "latitude": 52.9938,
    "longitude": 6.5623,
    "city": "Assen",
    "municipality": "Assen",
    "province": "Drenthe"
  },
  {
    "postal_code": 9402,
    "latitude": 53.0043,
    "longitude": 6.5594,
    "city": "Assen",
    "municipality": "Assen",
    "province": "Drenthe"
  },
  {
    "postal_code": 9403,
    "latitude": 53.0145,
    "longitude": 6.5862,
    "city": "Assen",
    "municipality": "Assen",
    "province": "Drenthe"
  },
  {
    "postal_code": 9404,
    "latitude": 52.9868,
    "longitude": 6.5763,
    "city": "Assen",
    "municipality": "Assen",
    "province": "Drenthe"
  },
  {
    "postal_code": 9405,
    "latitude": 52.9863,
    "longitude": 6.5293,
    "city": "Assen",
    "municipality": "Assen",
    "province": "Drenthe"
  },
  {
    "postal_code": 9406,
    "latitude": 53.0022,
    "longitude": 6.5433,
    "city": "Assen",
    "municipality": "Assen",
    "province": "Drenthe"
  },
  {
    "postal_code": 9407,
    "latitude": 53.0177,
    "longitude": 6.5614,
    "city": "Assen",
    "municipality": "Assen",
    "province": "Drenthe"
  },
  {
    "postal_code": 9408,
    "latitude": 53.0031,
    "longitude": 6.5116,
    "city": "Assen",
    "municipality": "Assen",
    "province": "Drenthe"
  },
  {
    "postal_code": 9409,
    "latitude": 53.0131,
    "longitude": 6.6118,
    "city": "Loon",
    "municipality": "Assen",
    "province": "Drenthe"
  },
  {
    "postal_code": 9486,
    "latitude": 53.0336,
    "longitude": 6.571,
    "city": "Rhee",
    "municipality": "Assen",
    "province": "Drenthe"
  },
  {
    "postal_code": 9487,
    "latitude": 53.0271,
    "longitude": 6.5446,
    "city": "Ter Aard",
    "municipality": "Assen",
    "province": "Drenthe"
  },
  {
    "postal_code": 9488,
    "latitude": 53.0336,
    "longitude": 6.5193,
    "city": "Zeijerveld",
    "municipality": "Assen",
    "province": "Drenthe"
  },
  {
    "postal_code": 9489,
    "latitude": 53.0135,
    "longitude": 6.521,
    "city": "Zeijerveen",
    "municipality": "Assen",
    "province": "Drenthe"
  },
  {
    "postal_code": 9492,
    "latitude": 53.0494,
    "longitude": 6.5794,
    "city": "Ubbena",
    "municipality": "Assen",
    "province": "Drenthe"
  },
  {
    "postal_code": 7741,
    "latitude": 52.6665,
    "longitude": 6.7349,
    "city": "Coevorden",
    "municipality": "Coevorden",
    "province": "Drenthe"
  },
  {
    "postal_code": 7742,
    "latitude": 52.6587,
    "longitude": 6.7543,
    "city": "Coevorden",
    "municipality": "Coevorden",
    "province": "Drenthe"
  },
  {
    "postal_code": 7751,
    "latitude": 52.6928,
    "longitude": 6.7573,
    "city": "Dalen",
    "municipality": "Coevorden",
    "province": "Drenthe"
  },
  {
    "postal_code": 7753,
    "latitude": 52.6811,
    "longitude": 6.6613,
    "city": "Dalerpeel",
    "municipality": "Coevorden",
    "province": "Drenthe"
  },
  {
    "postal_code": 7754,
    "latitude": 52.725,
    "longitude": 6.748,
    "city": "Wachtum",
    "municipality": "Coevorden",
    "province": "Drenthe"
  },
  {
    "postal_code": 7755,
    "latitude": 52.694,
    "longitude": 6.8086,
    "city": "Dalerveen",
    "municipality": "Coevorden",
    "province": "Drenthe"
  },
  {
    "postal_code": 7756,
    "latitude": 52.6747,
    "longitude": 6.8123,
    "city": "Stieltjeskanaal",
    "municipality": "Coevorden",
    "province": "Drenthe"
  },
  {
    "postal_code": 7841,
    "latitude": 52.7696,
    "longitude": 6.8016,
    "city": "Sleen",
    "municipality": "Coevorden",
    "province": "Drenthe"
  },
  {
    "postal_code": 7842,
    "latitude": 52.7706,
    "longitude": 6.8183,
    "city": "Diphoorn",
    "municipality": "Coevorden",
    "province": "Drenthe"
  },
  {
    "postal_code": 7843,
    "latitude": 52.7484,
    "longitude": 6.8084,
    "city": "Erm",
    "municipality": "Coevorden",
    "province": "Drenthe"
  },
  {
    "postal_code": 7845,
    "latitude": 52.7225,
    "longitude": 6.8055,
    "city": "Holsloot",
    "municipality": "Coevorden",
    "province": "Drenthe"
  },
  {
    "postal_code": 7846,
    "latitude": 52.7914,
    "longitude": 6.8021,
    "city": "Noord-Sleen",
    "municipality": "Coevorden",
    "province": "Drenthe"
  },
  {
    "postal_code": 7847,
    "latitude": 52.8143,
    "longitude": 6.8254,
    "city": "'t Haantje",
    "municipality": "Coevorden",
    "province": "Drenthe"
  },
  {
    "postal_code": 7848,
    "latitude": 52.8443,
    "longitude": 6.7566,
    "city": "Schoonoord",
    "municipality": "Coevorden",
    "province": "Drenthe"
  },
  {
    "postal_code": 7849,
    "latitude": 52.8625,
    "longitude": 6.7444,
    "city": "De Kiel",
    "municipality": "Coevorden",
    "province": "Drenthe"
  },
  {
    "postal_code": 7851,
    "latitude": 52.7975,
    "longitude": 6.7328,
    "city": "Zweeloo",
    "municipality": "Coevorden",
    "province": "Drenthe"
  },
  {
    "postal_code": 7852,
    "latitude": 52.8145,
    "longitude": 6.7187,
    "city": "Wezup",
    "municipality": "Coevorden",
    "province": "Drenthe"
  },
  {
    "postal_code": 7853,
    "latitude": 52.8406,
    "longitude": 6.7256,
    "city": "Wezuperbrug",
    "municipality": "Coevorden",
    "province": "Drenthe"
  },
  {
    "postal_code": 7854,
    "latitude": 52.7935,
    "longitude": 6.7139,
    "city": "Aalden",
    "municipality": "Coevorden",
    "province": "Drenthe"
  },
  {
    "postal_code": 7855,
    "latitude": 52.7822,
    "longitude": 6.6911,
    "city": "Meppen",
    "municipality": "Coevorden",
    "province": "Drenthe"
  },
  {
    "postal_code": 7856,
    "latitude": 52.7754,
    "longitude": 6.7474,
    "city": "Benneveld",
    "municipality": "Coevorden",
    "province": "Drenthe"
  },
  {
    "postal_code": 7861,
    "latitude": 52.7547,
    "longitude": 6.7221,
    "city": "Oosterhesselen",
    "municipality": "Coevorden",
    "province": "Drenthe"
  },
  {
    "postal_code": 7863,
    "latitude": 52.7485,
    "longitude": 6.6893,
    "city": "Gees",
    "municipality": "Coevorden",
    "province": "Drenthe"
  },
  {
    "postal_code": 7864,
    "latitude": 52.7235,
    "longitude": 6.6735,
    "city": "Zwinderen",
    "municipality": "Coevorden",
    "province": "Drenthe"
  },
  {
    "postal_code": 7917,
    "latitude": 52.7287,
    "longitude": 6.6277,
    "city": "Geesbrug",
    "municipality": "Coevorden",
    "province": "Drenthe"
  },
  {
    "postal_code": 7929,
    "latitude": 52.7003,
    "longitude": 6.6341,
    "city": "Nieuwlande Coevorden",
    "municipality": "Coevorden",
    "province": "Drenthe"
  },
  {
    "postal_code": 7761,
    "latitude": 52.6646,
    "longitude": 6.8832,
    "city": "Schoonebeek",
    "municipality": "Emmen",
    "province": "Drenthe"
  },
  {
    "postal_code": 7764,
    "latitude": 52.6939,
    "longitude": 6.8642,
    "city": "Zandpol",
    "municipality": "Emmen",
    "province": "Drenthe"
  },
  {
    "postal_code": 7765,
    "latitude": 52.6721,
    "longitude": 6.9897,
    "city": "Weiteveen",
    "municipality": "Emmen",
    "province": "Drenthe"
  },
  {
    "postal_code": 7766,
    "latitude": 52.6476,
    "longitude": 6.9892,
    "city": "Nieuw-Schoonebeek",
    "municipality": "Emmen",
    "province": "Drenthe"
  },
  {
    "postal_code": 7811,
    "latitude": 52.7829,
    "longitude": 6.8955,
    "city": "Emmen",
    "municipality": "Emmen",
    "province": "Drenthe"
  },
  {
    "postal_code": 7812,
    "latitude": 52.7641,
    "longitude": 6.8863,
    "city": "Emmen",
    "municipality": "Emmen",
    "province": "Drenthe"
  },
  {
    "postal_code": 7813,
    "latitude": 52.7565,
    "longitude": 6.8656,
    "city": "Emmen",
    "municipality": "Emmen",
    "province": "Drenthe"
  },
  {
    "postal_code": 7814,
    "latitude": 52.8013,
    "longitude": 6.8984,
    "city": "Emmen",
    "municipality": "Emmen",
    "province": "Drenthe"
  },
  {
    "postal_code": 7815,
    "latitude": 52.7981,
    "longitude": 6.8935,
    "city": "Emmen",
    "municipality": "Emmen",
    "province": "Drenthe"
  },
  {
    "postal_code": 7821,
    "latitude": 52.7707,
    "longitude": 6.912,
    "city": "Emmen",
    "municipality": "Emmen",
    "province": "Drenthe"
  },
  {
    "postal_code": 7822,
    "latitude": 52.7909,
    "longitude": 6.9045,
    "city": "Emmen",
    "municipality": "Emmen",
    "province": "Drenthe"
  },
  {
    "postal_code": 7823,
    "latitude": 52.792,
    "longitude": 6.9385,
    "city": "Emmen",
    "municipality": "Emmen",
    "province": "Drenthe"
  },
  {
    "postal_code": 7824,
    "latitude": 52.7808,
    "longitude": 6.9298,
    "city": "Emmen",
    "municipality": "Emmen",
    "province": "Drenthe"
  },
  {
    "postal_code": 7825,
    "latitude": 52.7562,
    "longitude": 6.9349,
    "city": "Emmen",
    "municipality": "Emmen",
    "province": "Drenthe"
  },
  {
    "postal_code": 7826,
    "latitude": 52.7714,
    "longitude": 6.9589,
    "city": "Emmen",
    "municipality": "Emmen",
    "province": "Drenthe"
  },
  {
    "postal_code": 7827,
    "latitude": 52.7476,
    "longitude": 6.8901,
    "city": "Emmen",
    "municipality": "Emmen",
    "province": "Drenthe"
  },
  {
    "postal_code": 7828,
    "latitude": 52.7329,
    "longitude": 6.9078,
    "city": "Emmen",
    "municipality": "Emmen",
    "province": "Drenthe"
  },
  {
    "postal_code": 7831,
    "latitude": 52.8526,
    "longitude": 6.98,
    "city": "Nieuw-Weerdinge",
    "municipality": "Emmen",
    "province": "Drenthe"
  },
  {
    "postal_code": 7833,
    "latitude": 52.7124,
    "longitude": 6.8599,
    "city": "Nieuw-Amsterdam",
    "municipality": "Emmen",
    "province": "Drenthe"
  },
  {
    "postal_code": 7844,
    "latitude": 52.711,
    "longitude": 6.8479,
    "city": "Veenoord",
    "municipality": "Emmen",
    "province": "Drenthe"
  },
  {
    "postal_code": 7881,
    "latitude": 52.7442,
    "longitude": 7.0086,
    "city": "Klazienaveen",
    "municipality": "Emmen",
    "province": "Drenthe"
  },
  {
    "postal_code": 7881,
    "latitude": 52.8089,
    "longitude": 7.0344,
    "city": "Emmer-Compascuum",
    "municipality": "Emmen",
    "province": "Drenthe"
  },
  {
    "postal_code": 7884,
    "latitude": 52.7554,
    "longitude": 7.0441,
    "city": "Barger-Compascuum",
    "municipality": "Emmen",
    "province": "Drenthe"
  },
  {
    "postal_code": 7885,
    "latitude": 52.7461,
    "longitude": 6.9636,
    "city": "Nieuw-Dordrecht",
    "municipality": "Emmen",
    "province": "Drenthe"
  },
  {
    "postal_code": 7887,
    "latitude": 52.7117,
    "longitude": 6.925,
    "city": "Erica",
    "municipality": "Emmen",
    "province": "Drenthe"
  },
  {
    "postal_code": 7889,
    "latitude": 52.7664,
    "longitude": 7.0021,
    "city": "Klazienaveen-Noord",
    "municipality": "Emmen",
    "province": "Drenthe"
  },
  {
    "postal_code": 7891,
    "latitude": 52.7237,
    "longitude": 6.9883,
    "city": "Klazienaveen",
    "municipality": "Emmen",
    "province": "Drenthe"
  },
  {
    "postal_code": 7892,
    "latitude": 52.7317,
    "longitude": 6.9704,
    "city": "Klazienaveen",
    "municipality": "Emmen",
    "province": "Drenthe"
  },
  {
    "postal_code": 7894,
    "latitude": 52.719,
    "longitude": 7.0422,
    "city": "Zwartemeer",
    "municipality": "Emmen",
    "province": "Drenthe"
  },
  {
    "postal_code": 7895,
    "latitude": 52.8399,
    "longitude": 7.031,
    "city": "Roswinkel",
    "municipality": "Emmen",
    "province": "Drenthe"
  },
  {
    "postal_code": 7901,
    "latitude": 52.7262,
    "longitude": 6.4734,
    "city": "Hoogeveen",
    "municipality": "Hoogeveen",
    "province": "Drenthe"
  },
  {
    "postal_code": 7902,
    "latitude": 52.7254,
    "longitude": 6.4833,
    "city": "Hoogeveen",
    "municipality": "Hoogeveen",
    "province": "Drenthe"
  },
  {
    "postal_code": 7903,
    "latitude": 52.7333,
    "longitude": 6.5065,
    "city": "Hoogeveen",
    "municipality": "Hoogeveen",
    "province": "Drenthe"
  },
  {
    "postal_code": 7904,
    "latitude": 52.7242,
    "longitude": 6.5116,
    "city": "Hoogeveen",
    "municipality": "Hoogeveen",
    "province": "Drenthe"
  },
  {
    "postal_code": 7905,
    "latitude": 52.7168,
    "longitude": 6.5018,
    "city": "Hoogeveen",
    "municipality": "Hoogeveen",
    "province": "Drenthe"
  },
  {
    "postal_code": 7906,
    "latitude": 52.7158,
    "longitude": 6.4852,
    "city": "Hoogeveen",
    "municipality": "Hoogeveen",
    "province": "Drenthe"
  },
  {
    "postal_code": 7907,
    "latitude": 52.7165,
    "longitude": 6.472,
    "city": "Hoogeveen",
    "municipality": "Hoogeveen",
    "province": "Drenthe"
  },
  {
    "postal_code": 7908,
    "latitude": 52.716,
    "longitude": 6.4488,
    "city": "Hoogeveen",
    "municipality": "Hoogeveen",
    "province": "Drenthe"
  },
  {
    "postal_code": 7909,
    "latitude": 52.7227,
    "longitude": 6.4526,
    "city": "Hoogeveen",
    "municipality": "Hoogeveen",
    "province": "Drenthe"
  },
  {
    "postal_code": 7911,
    "latitude": 52.7279,
    "longitude": 6.5453,
    "city": "Noordscheschut",
    "municipality": "Hoogeveen",
    "province": "Drenthe"
  },
  {
    "postal_code": 7911,
    "latitude": 52.7208,
    "longitude": 6.5696,
    "city": "Nieuweroord",
    "municipality": "Hoogeveen",
    "province": "Drenthe"
  },
  {
    "postal_code": 7912,
    "latitude": 52.7292,
    "longitude": 6.5647,
    "city": "Nieuweroord",
    "municipality": "Hoogeveen",
    "province": "Drenthe"
  },
  {
    "postal_code": 7913,
    "latitude": 52.7029,
    "longitude": 6.5407,
    "city": "Hollandscheveld",
    "municipality": "Hoogeveen",
    "province": "Drenthe"
  },
  {
    "postal_code": 7913,
    "latitude": 52.7171,
    "longitude": 6.5717,
    "city": "Nieuweroord",
    "municipality": "Hoogeveen",
    "province": "Drenthe"
  },
  {
    "postal_code": 7913,
    "latitude": 52.7114,
    "longitude": 6.5175,
    "city": "Hoogeveen",
    "municipality": "Hoogeveen",
    "province": "Drenthe"
  },
  {
    "postal_code": 7914,
    "latitude": 52.7242,
    "longitude": 6.5347,
    "city": "Noordscheschut",
    "municipality": "Hoogeveen",
    "province": "Drenthe"
  },
  {
    "postal_code": 7915,
    "latitude": 52.6816,
    "longitude": 6.501,
    "city": "Alteveer gem Hoogeveen",
    "municipality": "Hoogeveen",
    "province": "Drenthe"
  },
  {
    "postal_code": 7916,
    "latitude": 52.6711,
    "longitude": 6.5921,
    "city": "Hollandscheveld",
    "municipality": "Hoogeveen",
    "province": "Drenthe"
  },
  {
    "postal_code": 7916,
    "latitude": 52.6811,
    "longitude": 6.5772,
    "city": "Elim",
    "municipality": "Hoogeveen",
    "province": "Drenthe"
  },
  {
    "postal_code": 7918,
    "latitude": 52.694,
    "longitude": 6.6126,
    "city": "Nieuwlande",
    "municipality": "Hoogeveen",
    "province": "Drenthe"
  },
  {
    "postal_code": 7931,
    "latitude": 52.7401,
    "longitude": 6.455,
    "city": "Fluitenberg",
    "municipality": "Hoogeveen",
    "province": "Drenthe"
  },
  {
    "postal_code": 7933,
    "latitude": 52.7745,
    "longitude": 6.4562,
    "city": "Pesse",
    "municipality": "Hoogeveen",
    "province": "Drenthe"
  },
  {
    "postal_code": 7934,
    "latitude": 52.7518,
    "longitude": 6.5023,
    "city": "Stuifzand",
    "municipality": "Hoogeveen",
    "province": "Drenthe"
  },
  {
    "postal_code": 7936,
    "latitude": 52.7491,
    "longitude": 6.5438,
    "city": "Tiendeveen",
    "municipality": "Hoogeveen",
    "province": "Drenthe"
  },
  {
    "postal_code": 7941,
    "latitude": 52.6962,
    "longitude": 6.191,
    "city": "Meppel",
    "municipality": "Meppel",
    "province": "Drenthe"
  },
  {
    "postal_code": 7942,
    "latitude": 52.705,
    "longitude": 6.1904,
    "city": "Meppel",
    "municipality": "Meppel",
    "province": "Drenthe"
  },
  {
    "postal_code": 7943,
    "latitude": 52.6962,
    "longitude": 6.2188,
    "city": "Meppel",
    "municipality": "Meppel",
    "province": "Drenthe"
  },
  {
    "postal_code": 7944,
    "latitude": 52.6848,
    "longitude": 6.1811,
    "city": "Meppel",
    "municipality": "Meppel",
    "province": "Drenthe"
  },
  {
    "postal_code": 7948,
    "latitude": 52.7189,
    "longitude": 6.1836,
    "city": "Meppel",
    "municipality": "Meppel",
    "province": "Drenthe"
  },
  {
    "postal_code": 7948,
    "latitude": 52.734,
    "longitude": 6.1664,
    "city": "Nijeveen",
    "municipality": "Meppel",
    "province": "Drenthe"
  },
  {
    "postal_code": 7949,
    "latitude": 52.6878,
    "longitude": 6.2674,
    "city": "Rogat",
    "municipality": "Meppel",
    "province": "Drenthe"
  },
  {
    "postal_code": 7965,
    "latitude": 52.6974,
    "longitude": 6.2623,
    "city": "Broekhuizen",
    "municipality": "Meppel",
    "province": "Drenthe"
  },
  {
    "postal_code": 7966,
    "latitude": 52.6782,
    "longitude": 6.2582,
    "city": "De Schiphorst",
    "municipality": "Meppel",
    "province": "Drenthe"
  },
  {
    "postal_code": 9443,
    "latitude": 52.9098,
    "longitude": 6.7084,
    "city": "Schoonloo",
    "municipality": "Aa en Hunze",
    "province": "Drenthe"
  },
  {
    "postal_code": 9444,
    "latitude": 52.9341,
    "longitude": 6.6717,
    "city": "Grolloo",
    "municipality": "Aa en Hunze",
    "province": "Drenthe"
  },
  {
    "postal_code": 9445,
    "latitude": 52.9463,
    "longitude": 6.6546,
    "city": "Vredenheim",
    "municipality": "Aa en Hunze",
    "province": "Drenthe"
  },
  {
    "postal_code": 9446,
    "latitude": 52.9413,
    "longitude": 6.6083,
    "city": "Amen",
    "municipality": "Aa en Hunze",
    "province": "Drenthe"
  },
  {
    "postal_code": 9447,
    "latitude": 52.946,
    "longitude": 6.7134,
    "city": "Papenvoort",
    "municipality": "Aa en Hunze",
    "province": "Drenthe"
  },
  {
    "postal_code": 9448,
    "latitude": 52.9643,
    "longitude": 6.6561,
    "city": "Marwijksoord",
    "municipality": "Aa en Hunze",
    "province": "Drenthe"
  },
  {
    "postal_code": 9449,
    "latitude": 52.967,
    "longitude": 6.6717,
    "city": "Nooitgedacht",
    "municipality": "Aa en Hunze",
    "province": "Drenthe"
  },
  {
    "postal_code": 9451,
    "latitude": 52.983,
    "longitude": 6.6518,
    "city": "Rolde",
    "municipality": "Aa en Hunze",
    "province": "Drenthe"
  },
  {
    "postal_code": 9452,
    "latitude": 52.9738,
    "longitude": 6.6245,
    "city": "Nijlande",
    "municipality": "Aa en Hunze",
    "province": "Drenthe"
  },
  {
    "postal_code": 9453,
    "latitude": 52.9643,
    "longitude": 6.6155,
    "city": "Eldersloo",
    "municipality": "Aa en Hunze",
    "province": "Drenthe"
  },
  {
    "postal_code": 9454,
    "latitude": 52.9528,
    "longitude": 6.6014,
    "city": "Ekehaar",
    "municipality": "Aa en Hunze",
    "province": "Drenthe"
  },
  {
    "postal_code": 9455,
    "latitude": 52.9512,
    "longitude": 6.572,
    "city": "Geelbroek",
    "municipality": "Aa en Hunze",
    "province": "Drenthe"
  },
  {
    "postal_code": 9456,
    "latitude": 52.9577,
    "longitude": 6.5829,
    "city": "Eleveld",
    "municipality": "Aa en Hunze",
    "province": "Drenthe"
  },
  {
    "postal_code": 9457,
    "latitude": 52.9829,
    "longitude": 6.6094,
    "city": "Deurze",
    "municipality": "Aa en Hunze",
    "province": "Drenthe"
  },
  {
    "postal_code": 9458,
    "latitude": 52.9949,
    "longitude": 6.6307,
    "city": "Balloo",
    "municipality": "Aa en Hunze",
    "province": "Drenthe"
  },
  {
    "postal_code": 9459,
    "latitude": 53.0231,
    "longitude": 6.636,
    "city": "Balloërveld",
    "municipality": "Aa en Hunze",
    "province": "Drenthe"
  },
  {
    "postal_code": 9461,
    "latitude": 53.0026,
    "longitude": 6.7666,
    "city": "Gieten",
    "municipality": "Aa en Hunze",
    "province": "Drenthe"
  },
  {
    "postal_code": 9462,
    "latitude": 52.975,
    "longitude": 6.7894,
    "city": "Gasselte",
    "municipality": "Aa en Hunze",
    "province": "Drenthe"
  },
  {
    "postal_code": 9463,
    "latitude": 53.0201,
    "longitude": 6.7366,
    "city": "Eext",
    "municipality": "Aa en Hunze",
    "province": "Drenthe"
  },
  {
    "postal_code": 9464,
    "latitude": 53.0343,
    "longitude": 6.7846,
    "city": "Eexterzandvoort",
    "municipality": "Aa en Hunze",
    "province": "Drenthe"
  },
  {
    "postal_code": 9465,
    "latitude": 52.9999,
    "longitude": 6.6859,
    "city": "Anderen",
    "municipality": "Aa en Hunze",
    "province": "Drenthe"
  },
  {
    "postal_code": 9466,
    "latitude": 53.0364,
    "longitude": 6.6642,
    "city": "Gasteren",
    "municipality": "Aa en Hunze",
    "province": "Drenthe"
  },
  {
    "postal_code": 9467,
    "latitude": 53.0473,
    "longitude": 6.704,
    "city": "Anloo",
    "municipality": "Aa en Hunze",
    "province": "Drenthe"
  },
  {
    "postal_code": 9468,
    "latitude": 53.0575,
    "longitude": 6.7197,
    "city": "Annen",
    "municipality": "Aa en Hunze",
    "province": "Drenthe"
  },
  {
    "postal_code": 9469,
    "latitude": 53.0732,
    "longitude": 6.6715,
    "city": "Schipborg",
    "municipality": "Aa en Hunze",
    "province": "Drenthe"
  },
  {
    "postal_code": 9511,
    "latitude": 53.0251,
    "longitude": 6.838,
    "city": "Gieterveen",
    "municipality": "Aa en Hunze",
    "province": "Drenthe"
  },
  {
    "postal_code": 9512,
    "latitude": 53.0488,
    "longitude": 6.8443,
    "city": "Nieuwediep",
    "municipality": "Aa en Hunze",
    "province": "Drenthe"
  },
  {
    "postal_code": 9514,
    "latitude": 52.9872,
    "longitude": 6.8505,
    "city": "Gasselternijveen",
    "municipality": "Aa en Hunze",
    "province": "Drenthe"
  },
  {
    "postal_code": 9515,
    "latitude": 52.9872,
    "longitude": 6.8719,
    "city": "Gasselternijveen",
    "municipality": "Aa en Hunze",
    "province": "Drenthe"
  },
  {
    "postal_code": 9515,
    "latitude": 52.9972,
    "longitude": 6.9069,
    "city": "Gasselternijveenschemond",
    "municipality": "Aa en Hunze",
    "province": "Drenthe"
  },
  {
    "postal_code": 9654,
    "latitude": 53.0788,
    "longitude": 6.8002,
    "city": "Annerveenschekanaal",
    "municipality": "Aa en Hunze",
    "province": "Drenthe"
  },
  {
    "postal_code": 9655,
    "latitude": 53.087,
    "longitude": 6.7634,
    "city": "Oud Annerveen",
    "municipality": "Aa en Hunze",
    "province": "Drenthe"
  },
  {
    "postal_code": 9656,
    "latitude": 53.0774,
    "longitude": 6.7658,
    "city": "Spijkerboor",
    "municipality": "Aa en Hunze",
    "province": "Drenthe"
  },
  {
    "postal_code": 9657,
    "latitude": 53.0701,
    "longitude": 6.7736,
    "city": "Nieuw Annerveen",
    "municipality": "Aa en Hunze",
    "province": "Drenthe"
  },
  {
    "postal_code": 9658,
    "latitude": 53.0522,
    "longitude": 6.8035,
    "city": "Eexterveen",
    "municipality": "Aa en Hunze",
    "province": "Drenthe"
  },
  {
    "postal_code": 9659,
    "latitude": 53.0582,
    "longitude": 6.8328,
    "city": "Eexterveenschekanaal",
    "municipality": "Aa en Hunze",
    "province": "Drenthe"
  },
  {
    "postal_code": 7858,
    "latitude": 52.8733,
    "longitude": 6.7692,
    "city": "Eeserveen",
    "municipality": "Borger-Odoorn",
    "province": "Drenthe"
  },
  {
    "postal_code": 7859,
    "latitude": 52.8697,
    "longitude": 6.7749,
    "city": "Eeserveen",
    "municipality": "Borger-Odoorn",
    "province": "Drenthe"
  },
  {
    "postal_code": 7871,
    "latitude": 52.8319,
    "longitude": 6.858,
    "city": "Klijndijk",
    "municipality": "Borger-Odoorn",
    "province": "Drenthe"
  },
  {
    "postal_code": 7872,
    "latitude": 52.8454,
    "longitude": 6.8923,
    "city": "Valthe",
    "municipality": "Borger-Odoorn",
    "province": "Drenthe"
  },
  {
    "postal_code": 7873,
    "latitude": 52.8495,
    "longitude": 6.8512,
    "city": "Odoorn",
    "municipality": "Borger-Odoorn",
    "province": "Drenthe"
  },
  {
    "postal_code": 7874,
    "latitude": 52.842,
    "longitude": 6.7945,
    "city": "Odoornerveen",
    "municipality": "Borger-Odoorn",
    "province": "Drenthe"
  },
  {
    "postal_code": 7875,
    "latitude": 52.8771,
    "longitude": 6.8678,
    "city": "Exloo",
    "municipality": "Borger-Odoorn",
    "province": "Drenthe"
  },
  {
    "postal_code": 7876,
    "latitude": 52.8813,
    "longitude": 6.9603,
    "city": "Valthermond",
    "municipality": "Borger-Odoorn",
    "province": "Drenthe"
  },
  {
    "postal_code": 7877,
    "latitude": 52.8884,
    "longitude": 7.0167,
    "city": "2e Valthermond",
    "municipality": "Borger-Odoorn",
    "province": "Drenthe"
  },
  {
    "postal_code": 9521,
    "latitude": 52.9644,
    "longitude": 6.9433,
    "city": "Nieuw-Buinen",
    "municipality": "Borger-Odoorn",
    "province": "Drenthe"
  },
  {
    "postal_code": 9523,
    "latitude": 52.9809,
    "longitude": 6.9114,
    "city": "Drouwenermond",
    "municipality": "Borger-Odoorn",
    "province": "Drenthe"
  },
  {
    "postal_code": 9524,
    "latitude": 52.9351,
    "longitude": 6.8808,
    "city": "Buinerveen",
    "municipality": "Borger-Odoorn",
    "province": "Drenthe"
  },
  {
    "postal_code": 9525,
    "latitude": 52.967,
    "longitude": 6.8562,
    "city": "Drouwenerveen",
    "municipality": "Borger-Odoorn",
    "province": "Drenthe"
  },
  {
    "postal_code": 9526,
    "latitude": 52.956,
    "longitude": 6.834,
    "city": "Bronnegerveen",
    "municipality": "Borger-Odoorn",
    "province": "Drenthe"
  },
  {
    "postal_code": 9527,
    "latitude": 52.9476,
    "longitude": 6.8177,
    "city": "Bronneger",
    "municipality": "Borger-Odoorn",
    "province": "Drenthe"
  },
  {
    "postal_code": 9528,
    "latitude": 52.9317,
    "longitude": 6.8359,
    "city": "Buinen",
    "municipality": "Borger-Odoorn",
    "province": "Drenthe"
  },
  {
    "postal_code": 9531,
    "latitude": 52.923,
    "longitude": 6.7917,
    "city": "Borger",
    "municipality": "Borger-Odoorn",
    "province": "Drenthe"
  },
  {
    "postal_code": 9533,
    "latitude": 52.9539,
    "longitude": 6.7908,
    "city": "Drouwen",
    "municipality": "Borger-Odoorn",
    "province": "Drenthe"
  },
  {
    "postal_code": 9534,
    "latitude": 52.9061,
    "longitude": 6.7618,
    "city": "Westdorp",
    "municipality": "Borger-Odoorn",
    "province": "Drenthe"
  },
  {
    "postal_code": 9535,
    "latitude": 52.8948,
    "longitude": 6.7378,
    "city": "Ellertshaar",
    "municipality": "Borger-Odoorn",
    "province": "Drenthe"
  },
  {
    "postal_code": 9536,
    "latitude": 52.9083,
    "longitude": 6.8136,
    "city": "Ees",
    "municipality": "Borger-Odoorn",
    "province": "Drenthe"
  },
  {
    "postal_code": 9537,
    "latitude": 52.8905,
    "longitude": 6.783,
    "city": "Eesergroen",
    "municipality": "Borger-Odoorn",
    "province": "Drenthe"
  },
  {
    "postal_code": 9564,
    "latitude": 52.9179,
    "longitude": 7.0291,
    "city": "Zandberg",
    "municipality": "Borger-Odoorn",
    "province": "Drenthe"
  },
  {
    "postal_code": 9571,
    "latitude": 52.9073,
    "longitude": 6.9353,
    "city": "2e Exloërmond",
    "municipality": "Borger-Odoorn",
    "province": "Drenthe"
  },
  {
    "postal_code": 9573,
    "latitude": 52.9339,
    "longitude": 6.9487,
    "city": "1e Exloërmond",
    "municipality": "Borger-Odoorn",
    "province": "Drenthe"
  },
  {
    "postal_code": 9574,
    "latitude": 52.9027,
    "longitude": 6.9013,
    "city": "Exloërveen",
    "municipality": "Borger-Odoorn",
    "province": "Drenthe"
  },
  {
    "postal_code": 7705,
    "latitude": 52.622,
    "longitude": 6.499,
    "city": "Drogteropslagen",
    "municipality": "De Wolden",
    "province": "Drenthe"
  },
  {
    "postal_code": 7921,
    "latitude": 52.6706,
    "longitude": 6.4268,
    "city": "Zuidwolde",
    "municipality": "De Wolden",
    "province": "Drenthe"
  },
  {
    "postal_code": 7924,
    "latitude": 52.6636,
    "longitude": 6.3759,
    "city": "Veeningen",
    "municipality": "De Wolden",
    "province": "Drenthe"
  },
  {
    "postal_code": 7925,
    "latitude": 52.6356,
    "longitude": 6.4634,
    "city": "Linde",
    "municipality": "De Wolden",
    "province": "Drenthe"
  },
  {
    "postal_code": 7926,
    "latitude": 52.666,
    "longitude": 6.5004,
    "city": "Kerkenveld",
    "municipality": "De Wolden",
    "province": "Drenthe"
  },
  {
    "postal_code": 7927,
    "latitude": 52.6776,
    "longitude": 6.4848,
    "city": "Alteveer",
    "municipality": "De Wolden",
    "province": "Drenthe"
  },
  {
    "postal_code": 7932,
    "latitude": 52.7074,
    "longitude": 6.3841,
    "city": "Echten",
    "municipality": "De Wolden",
    "province": "Drenthe"
  },
  {
    "postal_code": 7935,
    "latitude": 52.7773,
    "longitude": 6.4411,
    "city": "Eursinge",
    "municipality": "De Wolden",
    "province": "Drenthe"
  },
  {
    "postal_code": 7957,
    "latitude": 52.673,
    "longitude": 6.2923,
    "city": "de Wijk",
    "municipality": "De Wolden",
    "province": "Drenthe"
  },
  {
    "postal_code": 7958,
    "latitude": 52.7034,
    "longitude": 6.3243,
    "city": "Koekange",
    "municipality": "De Wolden",
    "province": "Drenthe"
  },
  {
    "postal_code": 7961,
    "latitude": 52.7256,
    "longitude": 6.2585,
    "city": "Ruinerwold",
    "municipality": "De Wolden",
    "province": "Drenthe"
  },
  {
    "postal_code": 7963,
    "latitude": 52.7615,
    "longitude": 6.3612,
    "city": "Ruinen",
    "municipality": "De Wolden",
    "province": "Drenthe"
  },
  {
    "postal_code": 7964,
    "latitude": 52.7829,
    "longitude": 6.3332,
    "city": "Ansen",
    "municipality": "De Wolden",
    "province": "Drenthe"
  },
  {
    "postal_code": 9301,
    "latitude": 53.138,
    "longitude": 6.4224,
    "city": "Roden",
    "municipality": "Noordenveld",
    "province": "Drenthe"
  },
  {
    "postal_code": 9302,
    "latitude": 53.1331,
    "longitude": 6.4036,
    "city": "Roden",
    "municipality": "Noordenveld",
    "province": "Drenthe"
  },
  {
    "postal_code": 9304,
    "latitude": 53.1147,
    "longitude": 6.4581,
    "city": "Lieveren",
    "municipality": "Noordenveld",
    "province": "Drenthe"
  },
  {
    "postal_code": 9305,
    "latitude": 53.1143,
    "longitude": 6.4213,
    "city": "Roderesch",
    "municipality": "Noordenveld",
    "province": "Drenthe"
  },
  {
    "postal_code": 9306,
    "latitude": 53.1124,
    "longitude": 6.4316,
    "city": "Alteveer",
    "municipality": "Noordenveld",
    "province": "Drenthe"
  },
  {
    "postal_code": 9307,
    "latitude": 53.1,
    "longitude": 6.403,
    "city": "Steenbergen",
    "municipality": "Noordenveld",
    "province": "Drenthe"
  },
  {
    "postal_code": 9311,
    "latitude": 53.1304,
    "longitude": 6.395,
    "city": "Nieuw-Roden",
    "municipality": "Noordenveld",
    "province": "Drenthe"
  },
  {
    "postal_code": 9312,
    "latitude": 53.1584,
    "longitude": 6.3974,
    "city": "Nietap",
    "municipality": "Noordenveld",
    "province": "Drenthe"
  },
  {
    "postal_code": 9313,
    "latitude": 53.1545,
    "longitude": 6.428,
    "city": "Leutingewolde",
    "municipality": "Noordenveld",
    "province": "Drenthe"
  },
  {
    "postal_code": 9314,
    "latitude": 53.156,
    "longitude": 6.4532,
    "city": "Foxwolde",
    "municipality": "Noordenveld",
    "province": "Drenthe"
  },
  {
    "postal_code": 9315,
    "latitude": 53.1698,
    "longitude": 6.4689,
    "city": "Roderwolde",
    "municipality": "Noordenveld",
    "province": "Drenthe"
  },
  {
    "postal_code": 9321,
    "latitude": 53.1459,
    "longitude": 6.4965,
    "city": "Peize",
    "municipality": "Noordenveld",
    "province": "Drenthe"
  },
  {
    "postal_code": 9331,
    "latitude": 53.0691,
    "longitude": 6.457,
    "city": "Norg",
    "municipality": "Noordenveld",
    "province": "Drenthe"
  },
  {
    "postal_code": 9333,
    "latitude": 53.093,
    "longitude": 6.444,
    "city": "Langelo",
    "municipality": "Noordenveld",
    "province": "Drenthe"
  },
  {
    "postal_code": 9334,
    "latitude": 53.0587,
    "longitude": 6.4973,
    "city": "Peest",
    "municipality": "Noordenveld",
    "province": "Drenthe"
  },
  {
    "postal_code": 9335,
    "latitude": 53.0395,
    "longitude": 6.4612,
    "city": "Zuidvelde",
    "municipality": "Noordenveld",
    "province": "Drenthe"
  },
  {
    "postal_code": 9336,
    "latitude": 53.017,
    "longitude": 6.4797,
    "city": "Huis ter Heide",
    "municipality": "Noordenveld",
    "province": "Drenthe"
  },
  {
    "postal_code": 9337,
    "latitude": 53.054,
    "longitude": 6.4395,
    "city": "Westervelde",
    "municipality": "Noordenveld",
    "province": "Drenthe"
  },
  {
    "postal_code": 9341,
    "latitude": 53.0341,
    "longitude": 6.3983,
    "city": "Veenhuizen",
    "municipality": "Noordenveld",
    "province": "Drenthe"
  },
  {
    "postal_code": 9342,
    "latitude": 53.0853,
    "longitude": 6.3811,
    "city": "Een",
    "municipality": "Noordenveld",
    "province": "Drenthe"
  },
  {
    "postal_code": 9343,
    "latitude": 53.0829,
    "longitude": 6.3341,
    "city": "Een-West",
    "municipality": "Noordenveld",
    "province": "Drenthe"
  },
  {
    "postal_code": 9351,
    "latitude": 53.1542,
    "longitude": 6.3845,
    "city": "Nietap",
    "municipality": "Noordenveld",
    "province": "Drenthe"
  },
  {
    "postal_code": 9354,
    "latitude": 53.1165,
    "longitude": 6.3653,
    "city": "Nieuw-Roden",
    "municipality": "Noordenveld",
    "province": "Drenthe"
  },
  {
    "postal_code": 9749,
    "latitude": 53.1938,
    "longitude": 6.4505,
    "city": "Matsloot",
    "municipality": "Noordenveld",
    "province": "Drenthe"
  },
  {
    "postal_code": 7933,
    "latitude": 52.7883,
    "longitude": 6.4353,
    "city": "Pesse",
    "municipality": "Westerveld",
    "province": "Drenthe"
  },
  {
    "postal_code": 7963,
    "latitude": 52.7831,
    "longitude": 6.3641,
    "city": "Ruinen",
    "municipality": "Westerveld",
    "province": "Drenthe"
  },
  {
    "postal_code": 7964,
    "latitude": 52.789,
    "longitude": 6.3564,
    "city": "Ansen",
    "municipality": "Westerveld",
    "province": "Drenthe"
  },
  {
    "postal_code": 7971,
    "latitude": 52.7741,
    "longitude": 6.2372,
    "city": "Havelte",
    "municipality": "Westerveld",
    "province": "Drenthe"
  },
  {
    "postal_code": 7973,
    "latitude": 52.7746,
    "longitude": 6.205,
    "city": "Darp",
    "municipality": "Westerveld",
    "province": "Drenthe"
  },
  {
    "postal_code": 7974,
    "latitude": 52.7747,
    "longitude": 6.1841,
    "city": "Havelterberg",
    "municipality": "Westerveld",
    "province": "Drenthe"
  },
  {
    "postal_code": 7975,
    "latitude": 52.7901,
    "longitude": 6.2811,
    "city": "Uffelte",
    "municipality": "Westerveld",
    "province": "Drenthe"
  },
  {
    "postal_code": 7981,
    "latitude": 52.8571,
    "longitude": 6.3191,
    "city": "Diever",
    "municipality": "Westerveld",
    "province": "Drenthe"
  },
  {
    "postal_code": 7983,
    "latitude": 52.8581,
    "longitude": 6.264,
    "city": "Wapse",
    "municipality": "Westerveld",
    "province": "Drenthe"
  },
  {
    "postal_code": 7984,
    "latitude": 52.8473,
    "longitude": 6.3374,
    "city": "Dieverbrug",
    "municipality": "Westerveld",
    "province": "Drenthe"
  },
  {
    "postal_code": 7985,
    "latitude": 52.8737,
    "longitude": 6.3669,
    "city": "Geeuwenbrug",
    "municipality": "Westerveld",
    "province": "Drenthe"
  },
  {
    "postal_code": 7986,
    "latitude": 52.8305,
    "longitude": 6.297,
    "city": "Wittelte",
    "municipality": "Westerveld",
    "province": "Drenthe"
  },
  {
    "postal_code": 7991,
    "latitude": 52.8372,
    "longitude": 6.3745,
    "city": "Dwingeloo",
    "municipality": "Westerveld",
    "province": "Drenthe"
  },
  {
    "postal_code": 8351,
    "latitude": 52.8237,
    "longitude": 6.2205,
    "city": "Wapserveen",
    "municipality": "Westerveld",
    "province": "Drenthe"
  },
  {
    "postal_code": 8381,
    "latitude": 52.8556,
    "longitude": 6.2076,
    "city": "Vledder",
    "municipality": "Westerveld",
    "province": "Drenthe"
  },
  {
    "postal_code": 8382,
    "latitude": 52.8454,
    "longitude": 6.1835,
    "city": "Frederiksoord",
    "municipality": "Westerveld",
    "province": "Drenthe"
  },
  {
    "postal_code": 8383,
    "latitude": 52.8388,
    "longitude": 6.165,
    "city": "Nijensleek",
    "municipality": "Westerveld",
    "province": "Drenthe"
  },
  {
    "postal_code": 8384,
    "latitude": 52.8573,
    "longitude": 6.1619,
    "city": "Wilhelminaoord",
    "municipality": "Westerveld",
    "province": "Drenthe"
  },
  {
    "postal_code": 8385,
    "latitude": 52.8755,
    "longitude": 6.1872,
    "city": "Vledderveen",
    "municipality": "Westerveld",
    "province": "Drenthe"
  },
  {
    "postal_code": 8386,
    "latitude": 52.8883,
    "longitude": 6.2526,
    "city": "Doldersum",
    "municipality": "Westerveld",
    "province": "Drenthe"
  },
  {
    "postal_code": 8387,
    "latitude": 52.8923,
    "longitude": 6.2195,
    "city": "Boschoord",
    "municipality": "Westerveld",
    "province": "Drenthe"
  },
  {
    "postal_code": 8437,
    "latitude": 52.9208,
    "longitude": 6.2537,
    "city": "Zorgvlied",
    "municipality": "Westerveld",
    "province": "Drenthe"
  },
  {
    "postal_code": 8438,
    "latitude": 52.9164,
    "longitude": 6.2726,
    "city": "Wateren",
    "municipality": "Westerveld",
    "province": "Drenthe"
  },
  {
    "postal_code": 8439,
    "latitude": 52.8932,
    "longitude": 6.3112,
    "city": "Oude Willem",
    "municipality": "Westerveld",
    "province": "Drenthe"
  },
  {
    "postal_code": 9417,
    "latitude": 52.8178,
    "longitude": 6.4592,
    "city": "Spier",
    "municipality": "Westerveld",
    "province": "Drenthe"
  },
  {
    "postal_code": 9423,
    "latitude": 52.9098,
    "longitude": 6.3685,
    "city": "Hoogersmilde",
    "municipality": "Westerveld",
    "province": "Drenthe"
  },
  {
    "postal_code": 9471,
    "latitude": 53.092,
    "longitude": 6.6749,
    "city": "Zuidlaren",
    "municipality": "Tynaarlo",
    "province": "Drenthe"
  },
  {
    "postal_code": 9472,
    "latitude": 53.0776,
    "longitude": 6.6959,
    "city": "Zuidlaren",
    "municipality": "Tynaarlo",
    "province": "Drenthe"
  },
  {
    "postal_code": 9473,
    "latitude": 53.1141,
    "longitude": 6.7164,
    "city": "De Groeve",
    "municipality": "Tynaarlo",
    "province": "Drenthe"
  },
  {
    "postal_code": 9474,
    "latitude": 53.1022,
    "longitude": 6.7501,
    "city": "Zuidlaarderveen",
    "municipality": "Tynaarlo",
    "province": "Drenthe"
  },
  {
    "postal_code": 9475,
    "latitude": 53.1125,
    "longitude": 6.6775,
    "city": "Midlaren",
    "municipality": "Tynaarlo",
    "province": "Drenthe"
  },
  {
    "postal_code": 9481,
    "latitude": 53.0726,
    "longitude": 6.5768,
    "city": "Vries",
    "municipality": "Tynaarlo",
    "province": "Drenthe"
  },
  {
    "postal_code": 9482,
    "latitude": 53.0796,
    "longitude": 6.6154,
    "city": "Tynaarlo",
    "municipality": "Tynaarlo",
    "province": "Drenthe"
  },
  {
    "postal_code": 9483,
    "latitude": 53.0688,
    "longitude": 6.6508,
    "city": "Zeegse",
    "municipality": "Tynaarlo",
    "province": "Drenthe"
  },
  {
    "postal_code": 9484,
    "latitude": 53.0511,
    "longitude": 6.6388,
    "city": "Oudemolen",
    "municipality": "Tynaarlo",
    "province": "Drenthe"
  },
  {
    "postal_code": 9485,
    "latitude": 53.0337,
    "longitude": 6.6221,
    "city": "Taarlo",
    "municipality": "Tynaarlo",
    "province": "Drenthe"
  },
  {
    "postal_code": 9491,
    "latitude": 53.0474,
    "longitude": 6.5448,
    "city": "Zeijen",
    "municipality": "Tynaarlo",
    "province": "Drenthe"
  },
  {
    "postal_code": 9493,
    "latitude": 53.112,
    "longitude": 6.6049,
    "city": "De Punt",
    "municipality": "Tynaarlo",
    "province": "Drenthe"
  },
  {
    "postal_code": 9494,
    "latitude": 53.1147,
    "longitude": 6.5903,
    "city": "Yde",
    "municipality": "Tynaarlo",
    "province": "Drenthe"
  },
  {
    "postal_code": 9495,
    "latitude": 53.1273,
    "longitude": 6.5243,
    "city": "Winde",
    "municipality": "Tynaarlo",
    "province": "Drenthe"
  },
  {
    "postal_code": 9496,
    "latitude": 53.1139,
    "longitude": 6.5253,
    "city": "Bunne",
    "municipality": "Tynaarlo",
    "province": "Drenthe"
  },
  {
    "postal_code": 9497,
    "latitude": 53.0952,
    "longitude": 6.5444,
    "city": "Donderen",
    "municipality": "Tynaarlo",
    "province": "Drenthe"
  },
  {
    "postal_code": 9761,
    "latitude": 53.1367,
    "longitude": 6.5633,
    "city": "Eelde",
    "municipality": "Tynaarlo",
    "province": "Drenthe"
  },
  {
    "postal_code": 9765,
    "latitude": 53.1482,
    "longitude": 6.5623,
    "city": "Paterswolde",
    "municipality": "Tynaarlo",
    "province": "Drenthe"
  },
  {
    "postal_code": 9766,
    "latitude": 53.1798,
    "longitude": 6.538,
    "city": "Eelderwolde",
    "municipality": "Tynaarlo",
    "province": "Drenthe"
  },
  {
    "postal_code": 7910,
    "latitude": 52.7479,
    "longitude": 6.585,
    "city": "Nieuweroord",
    "municipality": "Midden-Drenthe",
    "province": "Drenthe"
  },
  {
    "postal_code": 7928,
    "latitude": 52.7718,
    "longitude": 6.4955,
    "city": "Stuifzand",
    "municipality": "Midden-Drenthe",
    "province": "Drenthe"
  },
  {
    "postal_code": 7937,
    "latitude": 52.7672,
    "longitude": 6.5239,
    "city": "Tiendeveen",
    "municipality": "Midden-Drenthe",
    "province": "Drenthe"
  },
  {
    "postal_code": 7938,
    "latitude": 52.7672,
    "longitude": 6.6041,
    "city": "Nieuw-Balinge",
    "municipality": "Midden-Drenthe",
    "province": "Drenthe"
  },
  {
    "postal_code": 9411,
    "latitude": 52.8607,
    "longitude": 6.5115,
    "city": "Beilen",
    "municipality": "Midden-Drenthe",
    "province": "Drenthe"
  },
  {
    "postal_code": 9412,
    "latitude": 52.8711,
    "longitude": 6.5203,
    "city": "Beilen",
    "municipality": "Midden-Drenthe",
    "province": "Drenthe"
  },
  {
    "postal_code": 9413,
    "latitude": 52.8486,
    "longitude": 6.5105,
    "city": "Beilen",
    "municipality": "Midden-Drenthe",
    "province": "Drenthe"
  },
  {
    "postal_code": 9414,
    "latitude": 52.9214,
    "longitude": 6.5411,
    "city": "Hooghalen",
    "municipality": "Midden-Drenthe",
    "province": "Drenthe"
  },
  {
    "postal_code": 9415,
    "latitude": 52.8956,
    "longitude": 6.4907,
    "city": "Hijken",
    "municipality": "Midden-Drenthe",
    "province": "Drenthe"
  },
  {
    "postal_code": 9416,
    "latitude": 52.91,
    "longitude": 6.4476,
    "city": "Oranje",
    "municipality": "Midden-Drenthe",
    "province": "Drenthe"
  },
  {
    "postal_code": 9417,
    "latitude": 52.8174,
    "longitude": 6.4778,
    "city": "Spier",
    "municipality": "Midden-Drenthe",
    "province": "Drenthe"
  },
  {
    "postal_code": 9418,
    "latitude": 52.8143,
    "longitude": 6.5176,
    "city": "Wijster",
    "municipality": "Midden-Drenthe",
    "province": "Drenthe"
  },
  {
    "postal_code": 9419,
    "latitude": 52.788,
    "longitude": 6.5553,
    "city": "Drijber",
    "municipality": "Midden-Drenthe",
    "province": "Drenthe"
  },
  {
    "postal_code": 9421,
    "latitude": 52.9775,
    "longitude": 6.4799,
    "city": "Bovensmilde",
    "municipality": "Midden-Drenthe",
    "province": "Drenthe"
  },
  {
    "postal_code": 9422,
    "latitude": 52.9474,
    "longitude": 6.4479,
    "city": "Smilde",
    "municipality": "Midden-Drenthe",
    "province": "Drenthe"
  },
  {
    "postal_code": 9423,
    "latitude": 52.9057,
    "longitude": 6.391,
    "city": "Hoogersmilde",
    "municipality": "Midden-Drenthe",
    "province": "Drenthe"
  },
  {
    "postal_code": 9431,
    "latitude": 52.8541,
    "longitude": 6.6077,
    "city": "Westerbork",
    "municipality": "Midden-Drenthe",
    "province": "Drenthe"
  },
  {
    "postal_code": 9432,
    "latitude": 52.8659,
    "longitude": 6.6359,
    "city": "Zuidveld",
    "municipality": "Midden-Drenthe",
    "province": "Drenthe"
  },
  {
    "postal_code": 9433,
    "latitude": 52.8823,
    "longitude": 6.5941,
    "city": "Zwiggelte",
    "municipality": "Midden-Drenthe",
    "province": "Drenthe"
  },
  {
    "postal_code": 9434,
    "latitude": 52.8365,
    "longitude": 6.6054,
    "city": "Eursinge",
    "municipality": "Midden-Drenthe",
    "province": "Drenthe"
  },
  {
    "postal_code": 9435,
    "latitude": 52.819,
    "longitude": 6.5841,
    "city": "Bruntinge",
    "municipality": "Midden-Drenthe",
    "province": "Drenthe"
  },
  {
    "postal_code": 9436,
    "latitude": 52.7985,
    "longitude": 6.6125,
    "city": "Mantinge",
    "municipality": "Midden-Drenthe",
    "province": "Drenthe"
  },
  {
    "postal_code": 9437,
    "latitude": 52.8108,
    "longitude": 6.6286,
    "city": "Balinge",
    "municipality": "Midden-Drenthe",
    "province": "Drenthe"
  },
  {
    "postal_code": 9438,
    "latitude": 52.8203,
    "longitude": 6.6237,
    "city": "Garminge",
    "municipality": "Midden-Drenthe",
    "province": "Drenthe"
  },
  {
    "postal_code": 9439,
    "latitude": 52.8233,
    "longitude": 6.6602,
    "city": "Witteveen",
    "municipality": "Midden-Drenthe",
    "province": "Drenthe"
  },
  {
    "postal_code": 9441,
    "latitude": 52.8473,
    "longitude": 6.6721,
    "city": "Orvelte",
    "municipality": "Midden-Drenthe",
    "province": "Drenthe"
  },
  {
    "postal_code": 9442,
    "latitude": 52.882,
    "longitude": 6.6435,
    "city": "Elp",
    "municipality": "Midden-Drenthe",
    "province": "Drenthe"
  },
  {
    "postal_code": 9231,
    "latitude": 53.1809,
    "longitude": 6.1686,
    "city": "Surhuisterveen",
    "municipality": "Achtkarspelen",
    "province": "Friesland"
  },
  {
    "postal_code": 9233,
    "latitude": 53.1607,
    "longitude": 6.1396,
    "city": "Boelenslaan",
    "municipality": "Achtkarspelen",
    "province": "Friesland"
  },
  {
    "postal_code": 9281,
    "latitude": 53.1856,
    "longitude": 6.1347,
    "city": "Harkema",
    "municipality": "Achtkarspelen",
    "province": "Friesland"
  },
  {
    "postal_code": 9283,
    "latitude": 53.205,
    "longitude": 6.1833,
    "city": "Surhuizum",
    "municipality": "Achtkarspelen",
    "province": "Friesland"
  },
  {
    "postal_code": 9284,
    "latitude": 53.2167,
    "longitude": 6.1611,
    "city": "Augustinusga",
    "municipality": "Achtkarspelen",
    "province": "Friesland"
  },
  {
    "postal_code": 9285,
    "latitude": 53.2503,
    "longitude": 6.1461,
    "city": "Buitenpost",
    "municipality": "Achtkarspelen",
    "province": "Friesland"
  },
  {
    "postal_code": 9286,
    "latitude": 53.2357,
    "longitude": 6.0926,
    "city": "Twijzel",
    "municipality": "Achtkarspelen",
    "province": "Friesland"
  },
  {
    "postal_code": 9287,
    "latitude": 53.2406,
    "longitude": 6.0487,
    "city": "Twijzelerheide",
    "municipality": "Achtkarspelen",
    "province": "Friesland"
  },
  {
    "postal_code": 9288,
    "latitude": 53.2157,
    "longitude": 6.0948,
    "city": "Kootstertille",
    "municipality": "Achtkarspelen",
    "province": "Friesland"
  },
  {
    "postal_code": 9289,
    "latitude": 53.201,
    "longitude": 6.1144,
    "city": "Drogeham",
    "municipality": "Achtkarspelen",
    "province": "Friesland"
  },
  {
    "postal_code": 9871,
    "latitude": 53.2388,
    "longitude": 6.2154,
    "city": "Stroobos",
    "municipality": "Achtkarspelen",
    "province": "Friesland"
  },
  {
    "postal_code": 9872,
    "latitude": 53.2356,
    "longitude": 6.211,
    "city": "Stroobos",
    "municipality": "Achtkarspelen",
    "province": "Friesland"
  },
  {
    "postal_code": 9873,
    "latitude": 53.2407,
    "longitude": 6.206,
    "city": "Gerkesklooster",
    "municipality": "Achtkarspelen",
    "province": "Friesland"
  },
  {
    "postal_code": 9161,
    "latitude": 53.4436,
    "longitude": 5.6387,
    "city": "Hollum",
    "municipality": "Ameland",
    "province": "Friesland"
  },
  {
    "postal_code": 9162,
    "latitude": 53.4462,
    "longitude": 5.6917,
    "city": "Ballum",
    "municipality": "Ameland",
    "province": "Friesland"
  },
  {
    "postal_code": 9163,
    "latitude": 53.4479,
    "longitude": 5.7734,
    "city": "Nes",
    "municipality": "Ameland",
    "province": "Friesland"
  },
  {
    "postal_code": 9164,
    "latitude": 53.4522,
    "longitude": 5.8009,
    "city": "Buren",
    "municipality": "Ameland",
    "province": "Friesland"
  },
  {
    "postal_code": 8857,
    "latitude": 53.1964,
    "longitude": 5.4591,
    "city": "Wijnaldum",
    "municipality": "Harlingen",
    "province": "Friesland"
  },
  {
    "postal_code": 8861,
    "latitude": 53.1751,
    "longitude": 5.4264,
    "city": "Harlingen",
    "municipality": "Harlingen",
    "province": "Friesland"
  },
  {
    "postal_code": 8862,
    "latitude": 53.1655,
    "longitude": 5.4355,
    "city": "Harlingen",
    "municipality": "Harlingen",
    "province": "Friesland"
  },
  {
    "postal_code": 8871,
    "latitude": 53.1833,
    "longitude": 5.4674,
    "city": "Midlum",
    "municipality": "Harlingen",
    "province": "Friesland"
  },
  {
    "postal_code": 8872,
    "latitude": 53.1825,
    "longitude": 5.4459,
    "city": "Midlum",
    "municipality": "Harlingen",
    "province": "Friesland"
  },
  {
    "postal_code": 8411,
    "latitude": 52.9951,
    "longitude": 6.1218,
    "city": "Jubbega",
    "municipality": "Heerenveen",
    "province": "Friesland"
  },
  {
    "postal_code": 8412,
    "latitude": 53.0038,
    "longitude": 6.163,
    "city": "Hoornsterzwaag",
    "municipality": "Heerenveen",
    "province": "Friesland"
  },
  {
    "postal_code": 8413,
    "latitude": 52.9629,
    "longitude": 6.0823,
    "city": "Oudehorne",
    "municipality": "Heerenveen",
    "province": "Friesland"
  },
  {
    "postal_code": 8414,
    "latitude": 52.9507,
    "longitude": 6.0602,
    "city": "Nieuwehorne",
    "municipality": "Heerenveen",
    "province": "Friesland"
  },
  {
    "postal_code": 8415,
    "latitude": 52.9615,
    "longitude": 6.0339,
    "city": "Bontebok",
    "municipality": "Heerenveen",
    "province": "Friesland"
  },
  {
    "postal_code": 8441,
    "latitude": 52.9652,
    "longitude": 5.9175,
    "city": "Heerenveen",
    "municipality": "Heerenveen",
    "province": "Friesland"
  },
  {
    "postal_code": 8442,
    "latitude": 52.9559,
    "longitude": 5.9281,
    "city": "Heerenveen",
    "municipality": "Heerenveen",
    "province": "Friesland"
  },
  {
    "postal_code": 8443,
    "latitude": 52.944,
    "longitude": 5.9407,
    "city": "Heerenveen",
    "municipality": "Heerenveen",
    "province": "Friesland"
  },
  {
    "postal_code": 8444,
    "latitude": 52.9366,
    "longitude": 5.949,
    "city": "Heerenveen",
    "municipality": "Heerenveen",
    "province": "Friesland"
  },
  {
    "postal_code": 8445,
    "latitude": 52.9385,
    "longitude": 5.9322,
    "city": "Heerenveen",
    "municipality": "Heerenveen",
    "province": "Friesland"
  },
  {
    "postal_code": 8446,
    "latitude": 52.9515,
    "longitude": 5.9158,
    "city": "Heerenveen",
    "municipality": "Heerenveen",
    "province": "Friesland"
  },
  {
    "postal_code": 8447,
    "latitude": 52.9626,
    "longitude": 5.904,
    "city": "Heerenveen",
    "municipality": "Heerenveen",
    "province": "Friesland"
  },
  {
    "postal_code": 8448,
    "latitude": 52.9609,
    "longitude": 5.9483,
    "city": "Heerenveen",
    "municipality": "Heerenveen",
    "province": "Friesland"
  },
  {
    "postal_code": 8449,
    "latitude": 52.9897,
    "longitude": 5.9114,
    "city": "Terband",
    "municipality": "Heerenveen",
    "province": "Friesland"
  },
  {
    "postal_code": 8451,
    "latitude": 52.9354,
    "longitude": 5.9564,
    "city": "Oudeschoot",
    "municipality": "Heerenveen",
    "province": "Friesland"
  },
  {
    "postal_code": 8452,
    "latitude": 52.9323,
    "longitude": 5.928,
    "city": "Nieuweschoot",
    "municipality": "Heerenveen",
    "province": "Friesland"
  },
  {
    "postal_code": 8453,
    "latitude": 52.9483,
    "longitude": 5.9545,
    "city": "Oranjewoud",
    "municipality": "Heerenveen",
    "province": "Friesland"
  },
  {
    "postal_code": 8454,
    "latitude": 52.9374,
    "longitude": 5.9992,
    "city": "Mildam",
    "municipality": "Heerenveen",
    "province": "Friesland"
  },
  {
    "postal_code": 8455,
    "latitude": 52.946,
    "longitude": 6.0194,
    "city": "Katlijk",
    "municipality": "Heerenveen",
    "province": "Friesland"
  },
  {
    "postal_code": 8456,
    "latitude": 52.9678,
    "longitude": 5.9774,
    "city": "De Knipe",
    "municipality": "Heerenveen",
    "province": "Friesland"
  },
  {
    "postal_code": 8457,
    "latitude": 53.017,
    "longitude": 5.9641,
    "city": "Gersloot",
    "municipality": "Heerenveen",
    "province": "Friesland"
  },
  {
    "postal_code": 8458,
    "latitude": 52.9986,
    "longitude": 5.9453,
    "city": "Tjalleberd",
    "municipality": "Heerenveen",
    "province": "Friesland"
  },
  {
    "postal_code": 8459,
    "latitude": 52.994,
    "longitude": 5.9245,
    "city": "Luinjeberd",
    "municipality": "Heerenveen",
    "province": "Friesland"
  },
  {
    "postal_code": 8468,
    "latitude": 52.998,
    "longitude": 5.877,
    "city": "Haskerdijken",
    "municipality": "Heerenveen",
    "province": "Friesland"
  },
  {
    "postal_code": 8469,
    "latitude": 52.9904,
    "longitude": 5.8845,
    "city": "Nieuwebrug",
    "municipality": "Heerenveen",
    "province": "Friesland"
  },
  {
    "postal_code": 8491,
    "latitude": 53.0503,
    "longitude": 5.8377,
    "city": "Akkrum",
    "municipality": "Heerenveen",
    "province": "Friesland"
  },
  {
    "postal_code": 8494,
    "latitude": 53.0584,
    "longitude": 5.8496,
    "city": "Nes",
    "municipality": "Heerenveen",
    "province": "Friesland"
  },
  {
    "postal_code": 8495,
    "latitude": 53.0492,
    "longitude": 5.8945,
    "city": "Aldeboarn",
    "municipality": "Heerenveen",
    "province": "Friesland"
  },
  {
    "postal_code": 8941,
    "latitude": 53.0431,
    "longitude": 5.8419,
    "city": "Akkrum",
    "municipality": "Heerenveen",
    "province": "Friesland"
  },
  {
    "postal_code": 8832,
    "latitude": 53.1607,
    "longitude": 5.6668,
    "city": "Húns",
    "municipality": "Leeuwarden",
    "province": "Friesland"
  },
  {
    "postal_code": 8833,
    "latitude": 53.1517,
    "longitude": 5.6793,
    "city": "Leons",
    "municipality": "Leeuwarden",
    "province": "Friesland"
  },
  {
    "postal_code": 8834,
    "latitude": 53.1423,
    "longitude": 5.6692,
    "city": "Baard",
    "municipality": "Leeuwarden",
    "province": "Friesland"
  },
  {
    "postal_code": 8835,
    "latitude": 53.1352,
    "longitude": 5.6503,
    "city": "Easterlittens",
    "municipality": "Leeuwarden",
    "province": "Friesland"
  },
  {
    "postal_code": 8911,
    "latitude": 53.2015,
    "longitude": 5.7967,
    "city": "Leeuwarden",
    "municipality": "Leeuwarden",
    "province": "Friesland"
  },
  {
    "postal_code": 8912,
    "latitude": 53.1922,
    "longitude": 5.769,
    "city": "Leeuwarden",
    "municipality": "Leeuwarden",
    "province": "Friesland"
  },
  {
    "postal_code": 8913,
    "latitude": 53.2015,
    "longitude": 5.7813,
    "city": "Leeuwarden",
    "municipality": "Leeuwarden",
    "province": "Friesland"
  },
  {
    "postal_code": 8914,
    "latitude": 53.2034,
    "longitude": 5.7706,
    "city": "Leeuwarden",
    "municipality": "Leeuwarden",
    "province": "Friesland"
  },
  {
    "postal_code": 8915,
    "latitude": 53.2094,
    "longitude": 5.7701,
    "city": "Leeuwarden",
    "municipality": "Leeuwarden",
    "province": "Friesland"
  },
  {
    "postal_code": 8916,
    "latitude": 53.2073,
    "longitude": 5.7817,
    "city": "Leeuwarden",
    "municipality": "Leeuwarden",
    "province": "Friesland"
  },
  {
    "postal_code": 8917,
    "latitude": 53.2085,
    "longitude": 5.7917,
    "city": "Leeuwarden",
    "municipality": "Leeuwarden",
    "province": "Friesland"
  },
  {
    "postal_code": 8918,
    "latitude": 53.2156,
    "longitude": 5.7939,
    "city": "Leeuwarden",
    "municipality": "Leeuwarden",
    "province": "Friesland"
  },
  {
    "postal_code": 8919,
    "latitude": 53.2195,
    "longitude": 5.7808,
    "city": "Leeuwarden",
    "municipality": "Leeuwarden",
    "province": "Friesland"
  },
  {
    "postal_code": 8921,
    "latitude": 53.2046,
    "longitude": 5.8105,
    "city": "Leeuwarden",
    "municipality": "Leeuwarden",
    "province": "Friesland"
  },
  {
    "postal_code": 8922,
    "latitude": 53.2099,
    "longitude": 5.8039,
    "city": "Leeuwarden",
    "municipality": "Leeuwarden",
    "province": "Friesland"
  },
  {
    "postal_code": 8923,
    "latitude": 53.2154,
    "longitude": 5.8131,
    "city": "Leeuwarden",
    "municipality": "Leeuwarden",
    "province": "Friesland"
  },
  {
    "postal_code": 8924,
    "latitude": 53.2082,
    "longitude": 5.8206,
    "city": "Leeuwarden",
    "municipality": "Leeuwarden",
    "province": "Friesland"
  },
  {
    "postal_code": 8925,
    "latitude": 53.2077,
    "longitude": 5.8429,
    "city": "Leeuwarden",
    "municipality": "Leeuwarden",
    "province": "Friesland"
  },
  {
    "postal_code": 8926,
    "latitude": 53.2138,
    "longitude": 5.8418,
    "city": "Leeuwarden",
    "municipality": "Leeuwarden",
    "province": "Friesland"
  },
  {
    "postal_code": 8927,
    "latitude": 53.2196,
    "longitude": 5.8307,
    "city": "Leeuwarden",
    "municipality": "Leeuwarden",
    "province": "Friesland"
  },
  {
    "postal_code": 8931,
    "latitude": 53.1867,
    "longitude": 5.7861,
    "city": "Leeuwarden",
    "municipality": "Leeuwarden",
    "province": "Friesland"
  },
  {
    "postal_code": 8932,
    "latitude": 53.1921,
    "longitude": 5.7921,
    "city": "Leeuwarden",
    "municipality": "Leeuwarden",
    "province": "Friesland"
  },
  {
    "postal_code": 8933,
    "latitude": 53.1978,
    "longitude": 5.8091,
    "city": "Leeuwarden",
    "municipality": "Leeuwarden",
    "province": "Friesland"
  },
  {
    "postal_code": 8934,
    "latitude": 53.192,
    "longitude": 5.8074,
    "city": "Leeuwarden",
    "municipality": "Leeuwarden",
    "province": "Friesland"
  },
  {
    "postal_code": 8935,
    "latitude": 53.1873,
    "longitude": 5.8164,
    "city": "Leeuwarden",
    "municipality": "Leeuwarden",
    "province": "Friesland"
  },
  {
    "postal_code": 8936,
    "latitude": 53.1929,
    "longitude": 5.8211,
    "city": "Leeuwarden",
    "municipality": "Leeuwarden",
    "province": "Friesland"
  },
  {
    "postal_code": 8937,
    "latitude": 53.1963,
    "longitude": 5.8198,
    "city": "Leeuwarden",
    "municipality": "Leeuwarden",
    "province": "Friesland"
  },
  {
    "postal_code": 8938,
    "latitude": 53.1986,
    "longitude": 5.8484,
    "city": "Leeuwarden",
    "municipality": "Leeuwarden",
    "province": "Friesland"
  },
  {
    "postal_code": 8939,
    "latitude": 53.1818,
    "longitude": 5.8376,
    "city": "Leeuwarden",
    "municipality": "Leeuwarden",
    "province": "Friesland"
  },
  {
    "postal_code": 8941,
    "latitude": 53.1693,
    "longitude": 5.8048,
    "city": "Leeuwarden",
    "municipality": "Leeuwarden",
    "province": "Friesland"
  },
  {
    "postal_code": 9001,
    "latitude": 53.0931,
    "longitude": 5.8372,
    "city": "Grou",
    "municipality": "Leeuwarden",
    "province": "Friesland"
  },
  {
    "postal_code": 9003,
    "latitude": 53.1468,
    "longitude": 5.9002,
    "city": "Warten",
    "municipality": "Leeuwarden",
    "province": "Friesland"
  },
  {
    "postal_code": 9004,
    "latitude": 53.1622,
    "longitude": 5.8649,
    "city": "Warstiens",
    "municipality": "Leeuwarden",
    "province": "Friesland"
  },
  {
    "postal_code": 9005,
    "latitude": 53.1501,
    "longitude": 5.845,
    "city": "Wergea",
    "municipality": "Leeuwarden",
    "province": "Friesland"
  },
  {
    "postal_code": 9006,
    "latitude": 53.1302,
    "longitude": 5.8273,
    "city": "Eagum",
    "municipality": "Leeuwarden",
    "province": "Friesland"
  },
  {
    "postal_code": 9007,
    "latitude": 53.1197,
    "longitude": 5.8121,
    "city": "Idaerd",
    "municipality": "Leeuwarden",
    "province": "Friesland"
  },
  {
    "postal_code": 9008,
    "latitude": 53.1174,
    "longitude": 5.7851,
    "city": "Reduzum",
    "municipality": "Leeuwarden",
    "province": "Friesland"
  },
  {
    "postal_code": 9009,
    "latitude": 53.0973,
    "longitude": 5.7982,
    "city": "Friens",
    "municipality": "Leeuwarden",
    "province": "Friesland"
  },
  {
    "postal_code": 9011,
    "latitude": 53.0782,
    "longitude": 5.7927,
    "city": "Jirnsum",
    "municipality": "Leeuwarden",
    "province": "Friesland"
  },
  {
    "postal_code": 9022,
    "latitude": 53.1299,
    "longitude": 5.7188,
    "city": "Mantgum",
    "municipality": "Leeuwarden",
    "province": "Friesland"
  },
  {
    "postal_code": 9023,
    "latitude": 53.1451,
    "longitude": 5.712,
    "city": "Jorwert",
    "municipality": "Leeuwarden",
    "province": "Friesland"
  },
  {
    "postal_code": 9024,
    "latitude": 53.1466,
    "longitude": 5.7434,
    "city": "Weidum",
    "municipality": "Leeuwarden",
    "province": "Friesland"
  },
  {
    "postal_code": 9025,
    "latitude": 53.1576,
    "longitude": 5.7382,
    "city": "Bears",
    "municipality": "Leeuwarden",
    "province": "Friesland"
  },
  {
    "postal_code": 9026,
    "latitude": 53.1654,
    "longitude": 5.7412,
    "city": "Jellum",
    "municipality": "Leeuwarden",
    "province": "Friesland"
  },
  {
    "postal_code": 9027,
    "latitude": 53.1662,
    "longitude": 5.7065,
    "city": "Hilaard",
    "municipality": "Leeuwarden",
    "province": "Friesland"
  },
  {
    "postal_code": 9051,
    "latitude": 53.2611,
    "longitude": 5.765,
    "city": "Stiens",
    "municipality": "Leeuwarden",
    "province": "Friesland"
  },
  {
    "postal_code": 9053,
    "latitude": 53.2794,
    "longitude": 5.7566,
    "city": "Feinsum",
    "municipality": "Leeuwarden",
    "province": "Friesland"
  },
  {
    "postal_code": 9054,
    "latitude": 53.2906,
    "longitude": 5.7661,
    "city": "Hijum",
    "municipality": "Leeuwarden",
    "province": "Friesland"
  },
  {
    "postal_code": 9055,
    "latitude": 53.2524,
    "longitude": 5.785,
    "city": "Britsum",
    "municipality": "Leeuwarden",
    "province": "Friesland"
  },
  {
    "postal_code": 9056,
    "latitude": 53.2438,
    "longitude": 5.7792,
    "city": "Koarnjum",
    "municipality": "Leeuwarden",
    "province": "Friesland"
  },
  {
    "postal_code": 9057,
    "latitude": 53.2332,
    "longitude": 5.7847,
    "city": "Jelsum",
    "municipality": "Leeuwarden",
    "province": "Friesland"
  },
  {
    "postal_code": 9071,
    "latitude": 53.2883,
    "longitude": 5.7282,
    "city": "Alde Leie",
    "municipality": "Leeuwarden",
    "province": "Friesland"
  },
  {
    "postal_code": 9081,
    "latitude": 53.2251,
    "longitude": 5.82,
    "city": "Lekkum",
    "municipality": "Leeuwarden",
    "province": "Friesland"
  },
  {
    "postal_code": 9082,
    "latitude": 53.2356,
    "longitude": 5.8316,
    "city": "Miedum",
    "municipality": "Leeuwarden",
    "province": "Friesland"
  },
  {
    "postal_code": 9083,
    "latitude": 53.2203,
    "longitude": 5.8096,
    "city": "Snakkerburen",
    "municipality": "Leeuwarden",
    "province": "Friesland"
  },
  {
    "postal_code": 9084,
    "latitude": 53.1785,
    "longitude": 5.8044,
    "city": "Goutum",
    "municipality": "Leeuwarden",
    "province": "Friesland"
  },
  {
    "postal_code": 9085,
    "latitude": 53.1803,
    "longitude": 5.8342,
    "city": "Teerns",
    "municipality": "Leeuwarden",
    "province": "Friesland"
  },
  {
    "postal_code": 9086,
    "latitude": 53.1777,
    "longitude": 5.839,
    "city": "Hempens",
    "municipality": "Leeuwarden",
    "province": "Friesland"
  },
  {
    "postal_code": 9087,
    "latitude": 53.1531,
    "longitude": 5.8212,
    "city": "Swichum",
    "municipality": "Leeuwarden",
    "province": "Friesland"
  },
  {
    "postal_code": 9088,
    "latitude": 53.1495,
    "longitude": 5.8034,
    "city": "Wirdum",
    "municipality": "Leeuwarden",
    "province": "Friesland"
  },
  {
    "postal_code": 9089,
    "latitude": 53.1398,
    "longitude": 5.7824,
    "city": "Wytgaard",
    "municipality": "Leeuwarden",
    "province": "Friesland"
  },
  {
    "postal_code": 8421,
    "latitude": 52.9383,
    "longitude": 6.1306,
    "city": "Oldeberkoop",
    "municipality": "Ooststellingwerf",
    "province": "Friesland"
  },
  {
    "postal_code": 8422,
    "latitude": 52.9602,
    "longitude": 6.183,
    "city": "Nijeberkoop",
    "municipality": "Ooststellingwerf",
    "province": "Friesland"
  },
  {
    "postal_code": 8423,
    "latitude": 52.9783,
    "longitude": 6.2211,
    "city": "Makkinga",
    "municipality": "Ooststellingwerf",
    "province": "Friesland"
  },
  {
    "postal_code": 8424,
    "latitude": 52.9423,
    "longitude": 6.2396,
    "city": "Elsloo",
    "municipality": "Ooststellingwerf",
    "province": "Friesland"
  },
  {
    "postal_code": 8425,
    "latitude": 52.9643,
    "longitude": 6.285,
    "city": "Langedijke",
    "municipality": "Ooststellingwerf",
    "province": "Friesland"
  },
  {
    "postal_code": 8426,
    "latitude": 52.9518,
    "longitude": 6.3513,
    "city": "Appelscha",
    "municipality": "Ooststellingwerf",
    "province": "Friesland"
  },
  {
    "postal_code": 8427,
    "latitude": 52.9658,
    "longitude": 6.3804,
    "city": "Ravenswoud",
    "municipality": "Ooststellingwerf",
    "province": "Friesland"
  },
  {
    "postal_code": 8428,
    "latitude": 52.9888,
    "longitude": 6.3406,
    "city": "Fochteloo",
    "municipality": "Ooststellingwerf",
    "province": "Friesland"
  },
  {
    "postal_code": 8431,
    "latitude": 52.9907,
    "longitude": 6.2921,
    "city": "Oosterwolde",
    "municipality": "Ooststellingwerf",
    "province": "Friesland"
  },
  {
    "postal_code": 8432,
    "latitude": 53.0386,
    "longitude": 6.3083,
    "city": "Haule",
    "municipality": "Ooststellingwerf",
    "province": "Friesland"
  },
  {
    "postal_code": 8433,
    "latitude": 53.0653,
    "longitude": 6.3343,
    "city": "Haulerwijk",
    "municipality": "Ooststellingwerf",
    "province": "Friesland"
  },
  {
    "postal_code": 8434,
    "latitude": 53.0551,
    "longitude": 6.2802,
    "city": "Waskemeer",
    "municipality": "Ooststellingwerf",
    "province": "Friesland"
  },
  {
    "postal_code": 8435,
    "latitude": 53.0194,
    "longitude": 6.2374,
    "city": "Donkerbroek",
    "municipality": "Ooststellingwerf",
    "province": "Friesland"
  },
  {
    "postal_code": 9431,
    "latitude": 52.9851,
    "longitude": 6.2986,
    "city": "Oosterwolde",
    "municipality": "Ooststellingwerf",
    "province": "Friesland"
  },
  {
    "postal_code": 8401,
    "latitude": 53.0046,
    "longitude": 6.0682,
    "city": "Gorredijk",
    "municipality": "Opsterland",
    "province": "Friesland"
  },
  {
    "postal_code": 8403,
    "latitude": 52.9778,
    "longitude": 6.039,
    "city": "Jonkerslân",
    "municipality": "Opsterland",
    "province": "Friesland"
  },
  {
    "postal_code": 8404,
    "latitude": 52.9851,
    "longitude": 6.007,
    "city": "Langezwaag",
    "municipality": "Opsterland",
    "province": "Friesland"
  },
  {
    "postal_code": 8405,
    "latitude": 52.9956,
    "longitude": 5.9813,
    "city": "Luxwoude",
    "municipality": "Opsterland",
    "province": "Friesland"
  },
  {
    "postal_code": 8406,
    "latitude": 53.0328,
    "longitude": 5.9879,
    "city": "Tijnje",
    "municipality": "Opsterland",
    "province": "Friesland"
  },
  {
    "postal_code": 8407,
    "latitude": 53.02,
    "longitude": 6.0438,
    "city": "Terwispel",
    "municipality": "Opsterland",
    "province": "Friesland"
  },
  {
    "postal_code": 8408,
    "latitude": 53.0172,
    "longitude": 6.0955,
    "city": "Lippenhuizen",
    "municipality": "Opsterland",
    "province": "Friesland"
  },
  {
    "postal_code": 8409,
    "latitude": 53.0332,
    "longitude": 6.1402,
    "city": "Hemrik",
    "municipality": "Opsterland",
    "province": "Friesland"
  },
  {
    "postal_code": 9207,
    "latitude": 53.0989,
    "longitude": 6.1332,
    "city": "Drachten-Azeven",
    "municipality": "Opsterland",
    "province": "Friesland"
  },
  {
    "postal_code": 9241,
    "latitude": 53.0535,
    "longitude": 6.2018,
    "city": "Wijnjewoude",
    "municipality": "Opsterland",
    "province": "Friesland"
  },
  {
    "postal_code": 9243,
    "latitude": 53.0803,
    "longitude": 6.2623,
    "city": "Bakkeveen",
    "municipality": "Opsterland",
    "province": "Friesland"
  },
  {
    "postal_code": 9244,
    "latitude": 53.0605,
    "longitude": 6.0783,
    "city": "Beetsterzwaag",
    "municipality": "Opsterland",
    "province": "Friesland"
  },
  {
    "postal_code": 9245,
    "latitude": 53.0679,
    "longitude": 5.9998,
    "city": "Nij Beets",
    "municipality": "Opsterland",
    "province": "Friesland"
  },
  {
    "postal_code": 9246,
    "latitude": 53.0679,
    "longitude": 6.1062,
    "city": "Olterterp",
    "municipality": "Opsterland",
    "province": "Friesland"
  },
  {
    "postal_code": 9247,
    "latitude": 53.0956,
    "longitude": 6.1687,
    "city": "Ureterp",
    "municipality": "Opsterland",
    "province": "Friesland"
  },
  {
    "postal_code": 9248,
    "latitude": 53.1017,
    "longitude": 6.2434,
    "city": "Siegerswoude",
    "municipality": "Opsterland",
    "province": "Friesland"
  },
  {
    "postal_code": 9249,
    "latitude": 53.1081,
    "longitude": 6.2058,
    "city": "Frieschepalen",
    "municipality": "Opsterland",
    "province": "Friesland"
  },
  {
    "postal_code": 9422,
    "latitude": 53.0638,
    "longitude": 6.0807,
    "city": "Beetsterzwaag",
    "municipality": "Opsterland",
    "province": "Friesland"
  },
  {
    "postal_code": 9166,
    "latitude": 53.4806,
    "longitude": 6.1623,
    "city": "Schiermonnikoog",
    "municipality": "Schiermonnikoog",
    "province": "Friesland"
  },
  {
    "postal_code": 8497,
    "latitude": 53.0875,
    "longitude": 5.9,
    "city": "Goëngahuizen",
    "municipality": "Smallingerland",
    "province": "Friesland"
  },
  {
    "postal_code": 9201,
    "latitude": 53.1138,
    "longitude": 6.0948,
    "city": "Drachten",
    "municipality": "Smallingerland",
    "province": "Friesland"
  },
  {
    "postal_code": 9202,
    "latitude": 53.1087,
    "longitude": 6.1162,
    "city": "Drachten",
    "municipality": "Smallingerland",
    "province": "Friesland"
  },
  {
    "postal_code": 9203,
    "latitude": 53.1022,
    "longitude": 6.0983,
    "city": "Drachten",
    "municipality": "Smallingerland",
    "province": "Friesland"
  },
  {
    "postal_code": 9204,
    "latitude": 53.0984,
    "longitude": 6.0706,
    "city": "Drachten",
    "municipality": "Smallingerland",
    "province": "Friesland"
  },
  {
    "postal_code": 9205,
    "latitude": 53.093,
    "longitude": 6.0577,
    "city": "Drachten",
    "municipality": "Smallingerland",
    "province": "Friesland"
  },
  {
    "postal_code": 9206,
    "latitude": 53.1139,
    "longitude": 6.0693,
    "city": "Drachten",
    "municipality": "Smallingerland",
    "province": "Friesland"
  },
  {
    "postal_code": 9207,
    "latitude": 53.1214,
    "longitude": 6.0919,
    "city": "Drachten",
    "municipality": "Smallingerland",
    "province": "Friesland"
  },
  {
    "postal_code": 9211,
    "latitude": 53.0826,
    "longitude": 6.0674,
    "city": "Kortehemmen",
    "municipality": "Smallingerland",
    "province": "Friesland"
  },
  {
    "postal_code": 9212,
    "latitude": 53.0856,
    "longitude": 6.044,
    "city": "Boornbergum",
    "municipality": "Smallingerland",
    "province": "Friesland"
  },
  {
    "postal_code": 9213,
    "latitude": 53.1007,
    "longitude": 6.0336,
    "city": "De Wilgen",
    "municipality": "Smallingerland",
    "province": "Friesland"
  },
  {
    "postal_code": 9214,
    "latitude": 53.1032,
    "longitude": 6.0142,
    "city": "Smalle Ee",
    "municipality": "Smallingerland",
    "province": "Friesland"
  },
  {
    "postal_code": 9215,
    "latitude": 53.0931,
    "longitude": 5.9583,
    "city": "De Veenhoop",
    "municipality": "Smallingerland",
    "province": "Friesland"
  },
  {
    "postal_code": 9216,
    "latitude": 53.1239,
    "longitude": 5.9909,
    "city": "Oudega",
    "municipality": "Smallingerland",
    "province": "Friesland"
  },
  {
    "postal_code": 9217,
    "latitude": 53.1371,
    "longitude": 6.0285,
    "city": "Nijega",
    "municipality": "Smallingerland",
    "province": "Friesland"
  },
  {
    "postal_code": 9218,
    "latitude": 53.1328,
    "longitude": 6.0587,
    "city": "Opeinde",
    "municipality": "Smallingerland",
    "province": "Friesland"
  },
  {
    "postal_code": 9219,
    "latitude": 53.1512,
    "longitude": 6.0345,
    "city": "De Tike",
    "municipality": "Smallingerland",
    "province": "Friesland"
  },
  {
    "postal_code": 9221,
    "latitude": 53.1453,
    "longitude": 6.1034,
    "city": "Rottevalle",
    "municipality": "Smallingerland",
    "province": "Friesland"
  },
  {
    "postal_code": 9222,
    "latitude": 53.1337,
    "longitude": 6.1455,
    "city": "Drachtstercompagnie",
    "municipality": "Smallingerland",
    "province": "Friesland"
  },
  {
    "postal_code": 9223,
    "latitude": 53.1517,
    "longitude": 6.1426,
    "city": "Houtigehage",
    "municipality": "Smallingerland",
    "province": "Friesland"
  },
  {
    "postal_code": 8881,
    "latitude": 53.3665,
    "longitude": 5.2214,
    "city": "West-Terschelling",
    "municipality": "Terschelling",
    "province": "Friesland"
  },
  {
    "postal_code": 8882,
    "latitude": 53.3776,
    "longitude": 5.255,
    "city": "Hee",
    "municipality": "Terschelling",
    "province": "Friesland"
  },
  {
    "postal_code": 8883,
    "latitude": 53.3768,
    "longitude": 5.2692,
    "city": "Kaard",
    "municipality": "Terschelling",
    "province": "Friesland"
  },
  {
    "postal_code": 8884,
    "latitude": 53.3779,
    "longitude": 5.2756,
    "city": "Baaiduinen",
    "municipality": "Terschelling",
    "province": "Friesland"
  },
  {
    "postal_code": 8885,
    "latitude": 53.375,
    "longitude": 5.2751,
    "city": "Kinnum",
    "municipality": "Terschelling",
    "province": "Friesland"
  },
  {
    "postal_code": 8891,
    "latitude": 53.3884,
    "longitude": 5.2857,
    "city": "Midsland",
    "municipality": "Terschelling",
    "province": "Friesland"
  },
  {
    "postal_code": 8892,
    "latitude": 53.3779,
    "longitude": 5.2926,
    "city": "Striep",
    "municipality": "Terschelling",
    "province": "Friesland"
  },
  {
    "postal_code": 8893,
    "latitude": 53.3865,
    "longitude": 5.299,
    "city": "Landerum",
    "municipality": "Terschelling",
    "province": "Friesland"
  },
  {
    "postal_code": 8894,
    "latitude": 53.3914,
    "longitude": 5.3081,
    "city": "Formerum",
    "municipality": "Terschelling",
    "province": "Friesland"
  },
  {
    "postal_code": 8895,
    "latitude": 53.3948,
    "longitude": 5.327,
    "city": "Lies",
    "municipality": "Terschelling",
    "province": "Friesland"
  },
  {
    "postal_code": 8896,
    "latitude": 53.3972,
    "longitude": 5.3425,
    "city": "Hoorn",
    "municipality": "Terschelling",
    "province": "Friesland"
  },
  {
    "postal_code": 8897,
    "latitude": 53.4042,
    "longitude": 5.3772,
    "city": "Oosterend",
    "municipality": "Terschelling",
    "province": "Friesland"
  },
  {
    "postal_code": 8899,
    "latitude": 53.2985,
    "longitude": 5.0665,
    "city": "Vlieland",
    "municipality": "Vlieland",
    "province": "Friesland"
  },
  {
    "postal_code": 8388,
    "latitude": 52.8962,
    "longitude": 6.1664,
    "city": "Oosterstreek",
    "municipality": "Weststellingwerf",
    "province": "Friesland"
  },
  {
    "postal_code": 8389,
    "latitude": 52.9115,
    "longitude": 6.1506,
    "city": "Zandhuizen",
    "municipality": "Weststellingwerf",
    "province": "Friesland"
  },
  {
    "postal_code": 8391,
    "latitude": 52.8877,
    "longitude": 6.1431,
    "city": "Noordwolde",
    "municipality": "Weststellingwerf",
    "province": "Friesland"
  },
  {
    "postal_code": 8392,
    "latitude": 52.9104,
    "longitude": 6.2014,
    "city": "Boijl",
    "municipality": "Weststellingwerf",
    "province": "Friesland"
  },
  {
    "postal_code": 8393,
    "latitude": 52.8716,
    "longitude": 6.1209,
    "city": "Vinkega",
    "municipality": "Weststellingwerf",
    "province": "Friesland"
  },
  {
    "postal_code": 8394,
    "latitude": 52.8891,
    "longitude": 6.0921,
    "city": "De Hoeve",
    "municipality": "Weststellingwerf",
    "province": "Friesland"
  },
  {
    "postal_code": 8395,
    "latitude": 52.8556,
    "longitude": 6.0778,
    "city": "Steggerda",
    "municipality": "Weststellingwerf",
    "province": "Friesland"
  },
  {
    "postal_code": 8396,
    "latitude": 52.8474,
    "longitude": 6.0526,
    "city": "Peperga",
    "municipality": "Weststellingwerf",
    "province": "Friesland"
  },
  {
    "postal_code": 8397,
    "latitude": 52.8427,
    "longitude": 6.043,
    "city": "De Blesse",
    "municipality": "Weststellingwerf",
    "province": "Friesland"
  },
  {
    "postal_code": 8398,
    "latitude": 52.8308,
    "longitude": 6.0173,
    "city": "Blesdijke",
    "municipality": "Weststellingwerf",
    "province": "Friesland"
  },
  {
    "postal_code": 8471,
    "latitude": 52.8739,
    "longitude": 5.9977,
    "city": "Wolvega",
    "municipality": "Weststellingwerf",
    "province": "Friesland"
  },
  {
    "postal_code": 8472,
    "latitude": 52.8799,
    "longitude": 6.0112,
    "city": "Wolvega",
    "municipality": "Weststellingwerf",
    "province": "Friesland"
  },
  {
    "postal_code": 8474,
    "latitude": 52.8924,
    "longitude": 6.0471,
    "city": "Oldeholtpade",
    "municipality": "Weststellingwerf",
    "province": "Friesland"
  },
  {
    "postal_code": 8475,
    "latitude": 52.9142,
    "longitude": 6.0801,
    "city": "Nijeholtpade",
    "municipality": "Weststellingwerf",
    "province": "Friesland"
  },
  {
    "postal_code": 8476,
    "latitude": 52.9051,
    "longitude": 6.0325,
    "city": "Ter Idzard",
    "municipality": "Weststellingwerf",
    "province": "Friesland"
  },
  {
    "postal_code": 8477,
    "latitude": 52.912,
    "longitude": 5.9931,
    "city": "Oldeholtwolde",
    "municipality": "Weststellingwerf",
    "province": "Friesland"
  },
  {
    "postal_code": 8478,
    "latitude": 52.8684,
    "longitude": 5.9725,
    "city": "Sonnega",
    "municipality": "Weststellingwerf",
    "province": "Friesland"
  },
  {
    "postal_code": 8479,
    "latitude": 52.8593,
    "longitude": 5.9483,
    "city": "Oldetrijne",
    "municipality": "Weststellingwerf",
    "province": "Friesland"
  },
  {
    "postal_code": 8481,
    "latitude": 52.841,
    "longitude": 5.9114,
    "city": "Nijetrijne",
    "municipality": "Weststellingwerf",
    "province": "Friesland"
  },
  {
    "postal_code": 8482,
    "latitude": 52.8185,
    "longitude": 5.876,
    "city": "Spanga",
    "municipality": "Weststellingwerf",
    "province": "Friesland"
  },
  {
    "postal_code": 8483,
    "latitude": 52.8304,
    "longitude": 5.872,
    "city": "Scherpenzeel",
    "municipality": "Weststellingwerf",
    "province": "Friesland"
  },
  {
    "postal_code": 8484,
    "latitude": 52.8467,
    "longitude": 5.8444,
    "city": "Langelille",
    "municipality": "Weststellingwerf",
    "province": "Friesland"
  },
  {
    "postal_code": 8485,
    "latitude": 52.8477,
    "longitude": 5.8818,
    "city": "Munnekeburen",
    "municipality": "Weststellingwerf",
    "province": "Friesland"
  },
  {
    "postal_code": 8486,
    "latitude": 52.8719,
    "longitude": 5.9221,
    "city": "Oldelamer",
    "municipality": "Weststellingwerf",
    "province": "Friesland"
  },
  {
    "postal_code": 8487,
    "latitude": 52.8903,
    "longitude": 5.9564,
    "city": "Nijelamer",
    "municipality": "Weststellingwerf",
    "province": "Friesland"
  },
  {
    "postal_code": 8488,
    "latitude": 52.8981,
    "longitude": 5.9877,
    "city": "Nijeholtwolde",
    "municipality": "Weststellingwerf",
    "province": "Friesland"
  },
  {
    "postal_code": 8489,
    "latitude": 52.8063,
    "longitude": 5.8444,
    "city": "Slijkenburg",
    "municipality": "Weststellingwerf",
    "province": "Friesland"
  },
  {
    "postal_code": 9061,
    "latitude": 53.2413,
    "longitude": 5.8903,
    "city": "Gytsjerk",
    "municipality": "Tytsjerksteradiel",
    "province": "Friesland"
  },
  {
    "postal_code": 9062,
    "latitude": 53.2513,
    "longitude": 5.8997,
    "city": "Oentsjerk",
    "municipality": "Tytsjerksteradiel",
    "province": "Friesland"
  },
  {
    "postal_code": 9063,
    "latitude": 53.2522,
    "longitude": 5.9175,
    "city": "Mûnein",
    "municipality": "Tytsjerksteradiel",
    "province": "Friesland"
  },
  {
    "postal_code": 9064,
    "latitude": 53.2645,
    "longitude": 5.8894,
    "city": "Aldtsjerk",
    "municipality": "Tytsjerksteradiel",
    "province": "Friesland"
  },
  {
    "postal_code": 9091,
    "latitude": 53.264,
    "longitude": 5.8391,
    "city": "Wyns",
    "municipality": "Tytsjerksteradiel",
    "province": "Friesland"
  },
  {
    "postal_code": 9251,
    "latitude": 53.1944,
    "longitude": 5.9929,
    "city": "Burgum",
    "municipality": "Tytsjerksteradiel",
    "province": "Friesland"
  },
  {
    "postal_code": 9254,
    "latitude": 53.2152,
    "longitude": 5.9425,
    "city": "Hurdegaryp",
    "municipality": "Tytsjerksteradiel",
    "province": "Friesland"
  },
  {
    "postal_code": 9255,
    "latitude": 53.2104,
    "longitude": 5.9118,
    "city": "Tytsjerk",
    "municipality": "Tytsjerksteradiel",
    "province": "Friesland"
  },
  {
    "postal_code": 9256,
    "latitude": 53.2253,
    "longitude": 5.914,
    "city": "Ryptsjerk",
    "municipality": "Tytsjerksteradiel",
    "province": "Friesland"
  },
  {
    "postal_code": 9257,
    "latitude": 53.2232,
    "longitude": 6.004,
    "city": "Noardburgum",
    "municipality": "Tytsjerksteradiel",
    "province": "Friesland"
  },
  {
    "postal_code": 9258,
    "latitude": 53.2125,
    "longitude": 6.0645,
    "city": "Jistrum",
    "municipality": "Tytsjerksteradiel",
    "province": "Friesland"
  },
  {
    "postal_code": 9261,
    "latitude": 53.1785,
    "longitude": 6.0667,
    "city": "Eastermar",
    "municipality": "Tytsjerksteradiel",
    "province": "Friesland"
  },
  {
    "postal_code": 9262,
    "latitude": 53.1757,
    "longitude": 6.0062,
    "city": "Sumar",
    "municipality": "Tytsjerksteradiel",
    "province": "Friesland"
  },
  {
    "postal_code": 9263,
    "latitude": 53.165,
    "longitude": 5.971,
    "city": "Garyp",
    "municipality": "Tytsjerksteradiel",
    "province": "Friesland"
  },
  {
    "postal_code": 9264,
    "latitude": 53.1306,
    "longitude": 5.9459,
    "city": "Earnewâld",
    "municipality": "Tytsjerksteradiel",
    "province": "Friesland"
  },
  {
    "postal_code": 9265,
    "latitude": 53.1794,
    "longitude": 5.9244,
    "city": "Suwâld",
    "municipality": "Tytsjerksteradiel",
    "province": "Friesland"
  },
  {
    "postal_code": 9067,
    "latitude": 53.2621,
    "longitude": 5.9152,
    "city": "Readtsjerk",
    "municipality": "Dantumadiel",
    "province": "Friesland"
  },
  {
    "postal_code": 9104,
    "latitude": 53.2894,
    "longitude": 5.9954,
    "city": "Damwâld",
    "municipality": "Dantumadiel",
    "province": "Friesland"
  },
  {
    "postal_code": 9105,
    "latitude": 53.296,
    "longitude": 5.9471,
    "city": "Rinsumageast",
    "municipality": "Dantumadiel",
    "province": "Friesland"
  },
  {
    "postal_code": 9106,
    "latitude": 53.3147,
    "longitude": 5.9507,
    "city": "Sibrandahûs",
    "municipality": "Dantumadiel",
    "province": "Friesland"
  },
  {
    "postal_code": 9108,
    "latitude": 53.2729,
    "longitude": 5.9938,
    "city": "Broeksterwâld",
    "municipality": "Dantumadiel",
    "province": "Friesland"
  },
  {
    "postal_code": 9109,
    "latitude": 53.2651,
    "longitude": 6.0063,
    "city": "De Falom",
    "municipality": "Dantumadiel",
    "province": "Friesland"
  },
  {
    "postal_code": 9113,
    "latitude": 53.2947,
    "longitude": 6.0291,
    "city": "Wâlterswâld",
    "municipality": "Dantumadiel",
    "province": "Friesland"
  },
  {
    "postal_code": 9114,
    "latitude": 53.2973,
    "longitude": 6.0478,
    "city": "Driezum",
    "municipality": "Dantumadiel",
    "province": "Friesland"
  },
  {
    "postal_code": 9269,
    "latitude": 53.2391,
    "longitude": 5.9902,
    "city": "Feanwâlden",
    "municipality": "Dantumadiel",
    "province": "Friesland"
  },
  {
    "postal_code": 9271,
    "latitude": 53.2554,
    "longitude": 6.0354,
    "city": "De Westereen",
    "municipality": "Dantumadiel",
    "province": "Friesland"
  },
  {
    "postal_code": 8529,
    "latitude": 52.9505,
    "longitude": 5.6579,
    "city": "Koufurderrige",
    "municipality": "Súdwest-Fryslân",
    "province": "Friesland"
  },
  {
    "postal_code": 8551,
    "latitude": 52.9424,
    "longitude": 5.6294,
    "city": "Woudsend",
    "municipality": "Súdwest-Fryslân",
    "province": "Friesland"
  },
  {
    "postal_code": 8552,
    "latitude": 52.9603,
    "longitude": 5.6345,
    "city": "Smallebrugge",
    "municipality": "Súdwest-Fryslân",
    "province": "Friesland"
  },
  {
    "postal_code": 8553,
    "latitude": 52.9482,
    "longitude": 5.6211,
    "city": "Indijk",
    "municipality": "Súdwest-Fryslân",
    "province": "Friesland"
  },
  {
    "postal_code": 8554,
    "latitude": 52.9354,
    "longitude": 5.6107,
    "city": "Ypecolsga",
    "municipality": "Súdwest-Fryslân",
    "province": "Friesland"
  },
  {
    "postal_code": 8584,
    "latitude": 52.881,
    "longitude": 5.4593,
    "city": "Hemelum",
    "municipality": "Súdwest-Fryslân",
    "province": "Friesland"
  },
  {
    "postal_code": 8601,
    "latitude": 53.0323,
    "longitude": 5.6513,
    "city": "Sneek",
    "municipality": "Súdwest-Fryslân",
    "province": "Friesland"
  },
  {
    "postal_code": 8602,
    "latitude": 53.0415,
    "longitude": 5.6568,
    "city": "Sneek",
    "municipality": "Súdwest-Fryslân",
    "province": "Friesland"
  },
  {
    "postal_code": 8603,
    "latitude": 53.0407,
    "longitude": 5.6668,
    "city": "Sneek",
    "municipality": "Súdwest-Fryslân",
    "province": "Friesland"
  },
  {
    "postal_code": 8604,
    "latitude": 53.0368,
    "longitude": 5.6815,
    "city": "Sneek",
    "municipality": "Súdwest-Fryslân",
    "province": "Friesland"
  },
  {
    "postal_code": 8605,
    "latitude": 53.0333,
    "longitude": 5.672,
    "city": "Sneek",
    "municipality": "Súdwest-Fryslân",
    "province": "Friesland"
  },
  {
    "postal_code": 8606,
    "latitude": 53.0279,
    "longitude": 5.6706,
    "city": "Sneek",
    "municipality": "Súdwest-Fryslân",
    "province": "Friesland"
  },
  {
    "postal_code": 8607,
    "latitude": 53.0205,
    "longitude": 5.6626,
    "city": "Sneek",
    "municipality": "Súdwest-Fryslân",
    "province": "Friesland"
  },
  {
    "postal_code": 8608,
    "latitude": 53.0235,
    "longitude": 5.6494,
    "city": "Sneek",
    "municipality": "Súdwest-Fryslân",
    "province": "Friesland"
  },
  {
    "postal_code": 8611,
    "latitude": 52.966,
    "longitude": 5.5398,
    "city": "Gaastmeer",
    "municipality": "Súdwest-Fryslân",
    "province": "Friesland"
  },
  {
    "postal_code": 8612,
    "latitude": 52.9797,
    "longitude": 5.5543,
    "city": "Idzega",
    "municipality": "Súdwest-Fryslân",
    "province": "Friesland"
  },
  {
    "postal_code": 8613,
    "latitude": 52.9882,
    "longitude": 5.5188,
    "city": "Sandfirden",
    "municipality": "Súdwest-Fryslân",
    "province": "Friesland"
  },
  {
    "postal_code": 8614,
    "latitude": 52.9923,
    "longitude": 5.5505,
    "city": "Oudega",
    "municipality": "Súdwest-Fryslân",
    "province": "Friesland"
  },
  {
    "postal_code": 8615,
    "latitude": 53.0228,
    "longitude": 5.532,
    "city": "Blauwhuis",
    "municipality": "Súdwest-Fryslân",
    "province": "Friesland"
  },
  {
    "postal_code": 8616,
    "latitude": 53.0161,
    "longitude": 5.5477,
    "city": "Westhem",
    "municipality": "Súdwest-Fryslân",
    "province": "Friesland"
  },
  {
    "postal_code": 8617,
    "latitude": 53.02,
    "longitude": 5.572,
    "city": "Abbega",
    "municipality": "Súdwest-Fryslân",
    "province": "Friesland"
  },
  {
    "postal_code": 8618,
    "latitude": 53.0147,
    "longitude": 5.6012,
    "city": "Oosthem",
    "municipality": "Súdwest-Fryslân",
    "province": "Friesland"
  },
  {
    "postal_code": 8621,
    "latitude": 52.9705,
    "longitude": 5.61,
    "city": "Heeg",
    "municipality": "Súdwest-Fryslân",
    "province": "Friesland"
  },
  {
    "postal_code": 8621,
    "latitude": 52.9628,
    "longitude": 5.62,
    "city": "Indijk",
    "municipality": "Súdwest-Fryslân",
    "province": "Friesland"
  },
  {
    "postal_code": 8622,
    "latitude": 52.979,
    "longitude": 5.6498,
    "city": "Hommerts",
    "municipality": "Súdwest-Fryslân",
    "province": "Friesland"
  },
  {
    "postal_code": 8623,
    "latitude": 52.9959,
    "longitude": 5.6488,
    "city": "Jutrijp",
    "municipality": "Súdwest-Fryslân",
    "province": "Friesland"
  },
  {
    "postal_code": 8624,
    "latitude": 53.0024,
    "longitude": 5.7078,
    "city": "Uitwellingerga",
    "municipality": "Súdwest-Fryslân",
    "province": "Friesland"
  },
  {
    "postal_code": 8625,
    "latitude": 53.0116,
    "longitude": 5.696,
    "city": "Oppenhuizen",
    "municipality": "Súdwest-Fryslân",
    "province": "Friesland"
  },
  {
    "postal_code": 8626,
    "latitude": 53.0299,
    "longitude": 5.7199,
    "city": "Offingawier",
    "municipality": "Súdwest-Fryslân",
    "province": "Friesland"
  },
  {
    "postal_code": 8627,
    "latitude": 53.0584,
    "longitude": 5.7141,
    "city": "Gauw",
    "municipality": "Súdwest-Fryslân",
    "province": "Friesland"
  },
  {
    "postal_code": 8628,
    "latitude": 53.0542,
    "longitude": 5.6953,
    "city": "Goënga",
    "municipality": "Súdwest-Fryslân",
    "province": "Friesland"
  },
  {
    "postal_code": 8629,
    "latitude": 53.0617,
    "longitude": 5.6781,
    "city": "Scharnegoutum",
    "municipality": "Súdwest-Fryslân",
    "province": "Friesland"
  },
  {
    "postal_code": 8631,
    "latitude": 53.0519,
    "longitude": 5.6685,
    "city": "Loënga",
    "municipality": "Súdwest-Fryslân",
    "province": "Friesland"
  },
  {
    "postal_code": 8632,
    "latitude": 53.0595,
    "longitude": 5.6266,
    "city": "Tirns",
    "municipality": "Súdwest-Fryslân",
    "province": "Friesland"
  },
  {
    "postal_code": 8633,
    "latitude": 53.0421,
    "longitude": 5.6324,
    "city": "Ysbrechtum",
    "municipality": "Súdwest-Fryslân",
    "province": "Friesland"
  },
  {
    "postal_code": 8635,
    "latitude": 53.089,
    "longitude": 5.6961,
    "city": "Boazum",
    "municipality": "Súdwest-Fryslân",
    "province": "Friesland"
  },
  {
    "postal_code": 8636,
    "latitude": 53.1132,
    "longitude": 5.6741,
    "city": "Britswert",
    "municipality": "Súdwest-Fryslân",
    "province": "Friesland"
  },
  {
    "postal_code": 8637,
    "latitude": 53.1085,
    "longitude": 5.6919,
    "city": "Wiuwert",
    "municipality": "Súdwest-Fryslân",
    "province": "Friesland"
  },
  {
    "postal_code": 8641,
    "latitude": 53.0954,
    "longitude": 5.6579,
    "city": "Rien",
    "municipality": "Súdwest-Fryslân",
    "province": "Friesland"
  },
  {
    "postal_code": 8642,
    "latitude": 53.0839,
    "longitude": 5.6644,
    "city": "Lytsewierrum",
    "municipality": "Súdwest-Fryslân",
    "province": "Friesland"
  },
  {
    "postal_code": 8644,
    "latitude": 53.0868,
    "longitude": 5.7166,
    "city": "Dearsum",
    "municipality": "Súdwest-Fryslân",
    "province": "Friesland"
  },
  {
    "postal_code": 8647,
    "latitude": 53.0671,
    "longitude": 5.7204,
    "city": "Sibrandabuorren",
    "municipality": "Súdwest-Fryslân",
    "province": "Friesland"
  },
  {
    "postal_code": 8651,
    "latitude": 53.0106,
    "longitude": 5.6219,
    "city": "IJlst",
    "municipality": "Súdwest-Fryslân",
    "province": "Friesland"
  },
  {
    "postal_code": 8658,
    "latitude": 53.0143,
    "longitude": 5.5185,
    "city": "Greonterp",
    "municipality": "Súdwest-Fryslân",
    "province": "Friesland"
  },
  {
    "postal_code": 8701,
    "latitude": 53.064,
    "longitude": 5.524,
    "city": "Bolsward",
    "municipality": "Súdwest-Fryslân",
    "province": "Friesland"
  },
  {
    "postal_code": 8702,
    "latitude": 53.0692,
    "longitude": 5.5362,
    "city": "Bolsward",
    "municipality": "Súdwest-Fryslân",
    "province": "Friesland"
  },
  {
    "postal_code": 8711,
    "latitude": 52.9767,
    "longitude": 5.4445,
    "city": "Workum",
    "municipality": "Súdwest-Fryslân",
    "province": "Friesland"
  },
  {
    "postal_code": 8711,
    "latitude": 52.9882,
    "longitude": 5.43,
    "city": "Ferwoude",
    "municipality": "Súdwest-Fryslân",
    "province": "Friesland"
  },
  {
    "postal_code": 8713,
    "latitude": 52.9413,
    "longitude": 5.4029,
    "city": "Hindeloopen",
    "municipality": "Súdwest-Fryslân",
    "province": "Friesland"
  },
  {
    "postal_code": 8715,
    "latitude": 52.8829,
    "longitude": 5.3641,
    "city": "Stavoren",
    "municipality": "Súdwest-Fryslân",
    "province": "Friesland"
  },
  {
    "postal_code": 8721,
    "latitude": 52.8771,
    "longitude": 5.4076,
    "city": "Warns",
    "municipality": "Súdwest-Fryslân",
    "province": "Friesland"
  },
  {
    "postal_code": 8722,
    "latitude": 52.8987,
    "longitude": 5.4038,
    "city": "Molkwerum",
    "municipality": "Súdwest-Fryslân",
    "province": "Friesland"
  },
  {
    "postal_code": 8723,
    "latitude": 52.9141,
    "longitude": 5.45,
    "city": "Koudum",
    "municipality": "Súdwest-Fryslân",
    "province": "Friesland"
  },
  {
    "postal_code": 8724,
    "latitude": 52.9523,
    "longitude": 5.4921,
    "city": "It Heidenskip",
    "municipality": "Súdwest-Fryslân",
    "province": "Friesland"
  },
  {
    "postal_code": 8731,
    "latitude": 53.1082,
    "longitude": 5.5886,
    "city": "Wommels",
    "municipality": "Súdwest-Fryslân",
    "province": "Friesland"
  },
  {
    "postal_code": 8732,
    "latitude": 53.1199,
    "longitude": 5.5699,
    "city": "Kûbaard",
    "municipality": "Súdwest-Fryslân",
    "province": "Friesland"
  },
  {
    "postal_code": 8733,
    "latitude": 53.1259,
    "longitude": 5.6134,
    "city": "Iens",
    "municipality": "Súdwest-Fryslân",
    "province": "Friesland"
  },
  {
    "postal_code": 8734,
    "latitude": 53.0973,
    "longitude": 5.6187,
    "city": "Easterein",
    "municipality": "Súdwest-Fryslân",
    "province": "Friesland"
  },
  {
    "postal_code": 8735,
    "latitude": 53.1009,
    "longitude": 5.6449,
    "city": "Itens",
    "municipality": "Súdwest-Fryslân",
    "province": "Friesland"
  },
  {
    "postal_code": 8736,
    "latitude": 53.0767,
    "longitude": 5.6355,
    "city": "Reahûs",
    "municipality": "Súdwest-Fryslân",
    "province": "Friesland"
  },
  {
    "postal_code": 8737,
    "latitude": 53.0777,
    "longitude": 5.6028,
    "city": "Hidaard",
    "municipality": "Súdwest-Fryslân",
    "province": "Friesland"
  },
  {
    "postal_code": 8741,
    "latitude": 53.0697,
    "longitude": 5.5701,
    "city": "Hartwerd",
    "municipality": "Súdwest-Fryslân",
    "province": "Friesland"
  },
  {
    "postal_code": 8742,
    "latitude": 53.0883,
    "longitude": 5.5436,
    "city": "Burgwerd",
    "municipality": "Súdwest-Fryslân",
    "province": "Friesland"
  },
  {
    "postal_code": 8743,
    "latitude": 53.0821,
    "longitude": 5.524,
    "city": "Hichtum",
    "municipality": "Súdwest-Fryslân",
    "province": "Friesland"
  },
  {
    "postal_code": 8744,
    "latitude": 53.0816,
    "longitude": 5.4825,
    "city": "Schettens",
    "municipality": "Súdwest-Fryslân",
    "province": "Friesland"
  },
  {
    "postal_code": 8745,
    "latitude": 53.0701,
    "longitude": 5.4782,
    "city": "Longerhouw",
    "municipality": "Súdwest-Fryslân",
    "province": "Friesland"
  },
  {
    "postal_code": 8746,
    "latitude": 53.0802,
    "longitude": 5.4522,
    "city": "Schraard",
    "municipality": "Súdwest-Fryslân",
    "province": "Friesland"
  },
  {
    "postal_code": 8747,
    "latitude": 53.0839,
    "longitude": 5.4228,
    "city": "Wons",
    "municipality": "Súdwest-Fryslân",
    "province": "Friesland"
  },
  {
    "postal_code": 8748,
    "latitude": 53.1016,
    "longitude": 5.4687,
    "city": "Witmarsum",
    "municipality": "Súdwest-Fryslân",
    "province": "Friesland"
  },
  {
    "postal_code": 8749,
    "latitude": 53.116,
    "longitude": 5.438,
    "city": "Pingjum",
    "municipality": "Súdwest-Fryslân",
    "province": "Friesland"
  },
  {
    "postal_code": 8751,
    "latitude": 53.1266,
    "longitude": 5.4077,
    "city": "Pingjum",
    "municipality": "Súdwest-Fryslân",
    "province": "Friesland"
  },
  {
    "postal_code": 8751,
    "latitude": 53.111,
    "longitude": 5.3942,
    "city": "Zurich",
    "municipality": "Súdwest-Fryslân",
    "province": "Friesland"
  },
  {
    "postal_code": 8752,
    "latitude": 53.0726,
    "longitude": 5.337,
    "city": "Kornwerderzand",
    "municipality": "Súdwest-Fryslân",
    "province": "Friesland"
  },
  {
    "postal_code": 8753,
    "latitude": 53.0833,
    "longitude": 5.3912,
    "city": "Cornwerd",
    "municipality": "Súdwest-Fryslân",
    "province": "Friesland"
  },
  {
    "postal_code": 8754,
    "latitude": 53.0557,
    "longitude": 5.4005,
    "city": "Makkum",
    "municipality": "Súdwest-Fryslân",
    "province": "Friesland"
  },
  {
    "postal_code": 8755,
    "latitude": 53.0442,
    "longitude": 5.4189,
    "city": "Idsegahuizum",
    "municipality": "Súdwest-Fryslân",
    "province": "Friesland"
  },
  {
    "postal_code": 8756,
    "latitude": 53.0366,
    "longitude": 5.41,
    "city": "Piaam",
    "municipality": "Súdwest-Fryslân",
    "province": "Friesland"
  },
  {
    "postal_code": 8757,
    "latitude": 53.0177,
    "longitude": 5.4141,
    "city": "Gaast",
    "municipality": "Súdwest-Fryslân",
    "province": "Friesland"
  },
  {
    "postal_code": 8758,
    "latitude": 53.0436,
    "longitude": 5.4471,
    "city": "Allingawier",
    "municipality": "Súdwest-Fryslân",
    "province": "Friesland"
  },
  {
    "postal_code": 8759,
    "latitude": 53.0561,
    "longitude": 5.4635,
    "city": "Exmorra",
    "municipality": "Súdwest-Fryslân",
    "province": "Friesland"
  },